[{"id": "wmm2TFEwMmb7AVaE-xlBNQ", "alias": "happy-cruises-coconut-grove", "name": "Happy Cruises", "image_url": "https://s3-media3.fl.yelpcdn.com/bphoto/jY90grtoKH2JTeBYXOXHLA/o.jpg", "is_closed": false, "url": "https://www.yelp.com/biz/happy-cruises-coconut-grove?adjust_creative=xaZ1Joo3-9aWJr5cVO0Jdg&utm_campaign=yelp_api_v3&utm_medium=api_v3_business_search&utm_source=xaZ1Joo3-9aWJr5cVO0Jdg", "review_count": 9, "categories": [{"alias": "boatcharters", "title": "Boat Charters"}], "rating": 5.0, "coordinates": {"latitude": 25.7267412, "longitude": -80.2352719}, "transactions": [], "location": {"address1": "3400 Pan American Dr", "address2": "", "address3": "", "city": "Coconut Grove", "zip_code": "33133", "country": "US", "state": "FL", "display_address": ["3400 Pan American Dr", "Coconut Grove, FL 33133"]}, "phone": "+17865667032", "display_phone": "(786) 566-7032", "distance": 6243.614846325348}, {"id": "dJBYIYRDfb6o1yu4-PyrHQ", "alias": "starlux-yachts-miami-beach", "name": "Starlux Yachts", "image_url": "https://s3-media3.fl.yelpcdn.com/bphoto/IV4NMG1QCHpVVUqIrcMbcA/o.jpg", "is_closed": false, "url": "https://www.yelp.com/biz/starlux-yachts-miami-beach?adjust_creative=xaZ1Joo3-9aWJr5cVO0Jdg&utm_campaign=yelp_api_v3&utm_medium=api_v3_business_search&utm_source=xaZ1Joo3-9aWJr5cVO0Jdg", "review_count": 28, "categories": [{"alias": "boatcharters", "title": "Boat Charters"}, {"alias": "boating", "title": "Boating"}, {"alias": "tours", "title": "Tours"}], "rating": 5.0, "coordinates": {"latitude": 25.7705631256104, "longitude": -80.1369781494141}, "transactions": [], "location": {"address1": "140 Meridian Ave", "address2": "Unit 323", "address3": "", "city": "Miami Beach", "zip_code": "33139", "country": "US", "state": "FL", "display_address": ["140 Meridian Ave", "Unit 323", "Miami Beach, FL 33139"]}, "phone": "+17867241919", "display_phone": "(786) 724-1919", "distance": 9245.197562165507}, {"id": "9DSfS-_P3jUKdIO-cNhDoQ", "alias": "tikki-beach-charters-miami-5", "name": "Tikki Beach Charters", "image_url": "https://s3-media4.fl.yelpcdn.com/bphoto/VxRIpS3ElNfCT7_8LizUtA/o.jpg", "is_closed": false, "url": "https://www.yelp.com/biz/tikki-beach-charters-miami-5?adjust_creative=xaZ1Joo3-9aWJr5cVO0Jdg&utm_campaign=yelp_api_v3&utm_medium=api_v3_business_search&utm_source=xaZ1Joo3-9aWJr5cVO0Jdg", "review_count": 6, "categories": [{"alias": "boatcharters", "title": "Boat Charters"}, {"alias": "venues", "title": "Venues & Event Spaces"}], "rating": 5.0, "coordinates": {"latitude": 25.7950053, "longitude": -80.1872561}, "transactions": [], "location": {"address1": "1900 N Bayshore Dr", "address2": "Ste 135", "address3": null, "city": "Miami", "zip_code": "33132", "country": "US", "state": "FL", "display_address": ["1900 N Bayshore Dr", "Ste 135", "Miami, FL 33132"]}, "phone": "+13053502112", "display_phone": "(305) 350-2112", "distance": 4341.181095143423}, {"id": "_MQlvyPjPEAMsx-tvmtsAQ", "alias": "caribbean-spirit-miami", "name": "Caribbean Spirit", "image_url": "https://s3-media2.fl.yelpcdn.com/bphoto/RLxMDN3QXiHBg0AV2QNliw/o.jpg", "is_closed": false, "url": "https://www.yelp.com/biz/caribbean-spirit-miami?adjust_creative=xaZ1Joo3-9aWJr5cVO0Jdg&utm_campaign=yelp_api_v3&utm_medium=api_v3_business_search&utm_source=xaZ1Joo3-9aWJr5cVO0Jdg", "review_count": 66, "categories": [{"alias": "boating", "title": "Boating"}], "rating": 4.0, "coordinates": {"latitude": 25.77728, "longitude": -80.185531}, "transactions": [], "location": {"address1": "401 Biscayne Blvd", "address2": "", "address3": "", "city": "Miami", "zip_code": "33132", "country": "US", "state": "FL", "display_address": ["401 Biscayne Blvd", "Miami, FL 33132"]}, "phone": "+13057441355", "display_phone": "(305) 744-1355", "distance": 4326.920918666223}, {"id": "m_Nx9UF169JbzXoC_yCvgg", "alias": "biscayne-lady-yacht-charters-miami", "name": "Biscayne Lady Yacht Charters", "image_url": "https://s3-media1.fl.yelpcdn.com/bphoto/8cRLJUJQvKhNppNfAlDc5g/o.jpg", "is_closed": false, "url": "https://www.yelp.com/biz/biscayne-lady-yacht-charters-miami?adjust_creative=xaZ1Joo3-9aWJr5cVO0Jdg&utm_campaign=yelp_api_v3&utm_medium=api_v3_business_search&utm_source=xaZ1Joo3-9aWJr5cVO0Jdg", "review_count": 18, "categories": [{"alias": "boatcharters", "title": "Boat Charters"}], "rating": 4.5, "coordinates": {"latitude": 25.790185, "longitude": -80.185699}, "transactions": [], "location": {"address1": "555 NE 15th St", "address2": "", "address3": "", "city": "Miami", "zip_code": "33132", "country": "US", "state": "FL", "display_address": ["555 NE 15th St", "Miami, FL 33132"]}, "phone": "+13053795119", "display_phone": "(305) 379-5119", "distance": 4353.5876626151}, {"id": "5OIz9VWlIM77UjZTrcd07g", "alias": "miami-sailing-private-charters-miami", "name": "Miami Sailing Private Charters", "image_url": "https://s3-media1.fl.yelpcdn.com/bphoto/R8XJu_6NiwoAgJVGAAEhkw/o.jpg", "is_closed": false, "url": "https://www.yelp.com/biz/miami-sailing-private-charters-miami?adjust_creative=xaZ1Joo3-9aWJr5cVO0Jdg&utm_campaign=yelp_api_v3&utm_medium=api_v3_business_search&utm_source=xaZ1Joo3-9aWJr5cVO0Jdg", "review_count": 10, "categories": [{"alias": "boatcharters", "title": "Boat Charters"}, {"alias": "boating", "title": "Boating"}, {"alias": "sailing", "title": "Sailing"}], "rating": 5.0, "coordinates": {"latitude": 25.7690616351009, "longitude": -80.1385212804871}, "transactions": [], "location": {"address1": "3400 Pan American Dr", "address2": "", "address3": "", "city": "Miami", "zip_code": "33139", "country": "US", "state": "FL", "display_address": ["3400 Pan American Dr", "Miami, FL 33139"]}, "phone": "+17864233131", "display_phone": "(786) 423-3131", "distance": 9118.518430119502}, {"id": "wt9InqMPx_F0_ZI0wTcUFA", "alias": "island-queen-cruises-miami", "name": "Island Queen Cruises", "image_url": "https://s3-media4.fl.yelpcdn.com/bphoto/iqdy6Wo2BECE6D_ShLbdmA/o.jpg", "is_closed": false, "url": "https://www.yelp.com/biz/island-queen-cruises-miami?adjust_creative=xaZ1Joo3-9aWJr5cVO0Jdg&utm_campaign=yelp_api_v3&utm_medium=api_v3_business_search&utm_source=xaZ1Joo3-9aWJr5cVO0Jdg", "review_count": 164, "categories": [{"alias": "boattours", "title": "Boat Tours"}, {"alias": "bustours", "title": "Bus Tours"}, {"alias": "boatcharters", "title": "Boat Charters"}], "rating": 3.0, "coordinates": {"latitude": 25.7792199, "longitude": -80.1865475}, "transactions": [], "location": {"address1": "401 Biscayne Blvd", "address2": "slip 1 - 4", "address3": "", "city": "Miami", "zip_code": "33132", "country": "US", "state": "FL", "display_address": ["401 Biscayne Blvd", "slip 1 - 4", "Miami, FL 33132"]}, "phone": "+13053795119", "display_phone": "(305) 379-5119", "distance": 4201.6229140133555}, {"id": "ElqVs-dhIEl_AuDXmhHRiQ", "alias": "catamaran-sailing-miami-miami-2", "name": "Catamaran Sailing Miami", "image_url": "https://s3-media1.fl.yelpcdn.com/bphoto/0rSnA_cMWwSa_-W3Pb_Kfw/o.jpg", "is_closed": false, "url": "https://www.yelp.com/biz/catamaran-sailing-miami-miami-2?adjust_creative=xaZ1Joo3-9aWJr5cVO0Jdg&utm_campaign=yelp_api_v3&utm_medium=api_v3_business_search&utm_source=xaZ1Joo3-9aWJr5cVO0Jdg", "review_count": 10, "categories": [{"alias": "tours", "title": "Tours"}, {"alias": "boating", "title": "Boating"}, {"alias": "boatcharters", "title": "Boat Charters"}], "rating": 5.0, "coordinates": {"latitude": 25.7272835075855, "longitude": -80.2359826862812}, "transactions": [], "location": {"address1": "3400 Pan American Dr", "address2": "", "address3": "", "city": "Miami", "zip_code": "33133", "country": "US", "state": "FL", "display_address": ["3400 Pan American Dr", "Miami, FL 33133"]}, "phone": "+19542180042", "display_phone": "(954) 218-0042", "distance": 6078.274588032529}, {"id": "byXqeHtghakWCHL6aw5Lzw", "alias": "captain-sir-charters-miami", "name": "Captain Sir! Charters", "image_url": "https://s3-media4.fl.yelpcdn.com/bphoto/eZfskgjZ915YJhjk8cdp_w/o.jpg", "is_closed": false, "url": "https://www.yelp.com/biz/captain-sir-charters-miami?adjust_creative=xaZ1Joo3-9aWJr5cVO0Jdg&utm_campaign=yelp_api_v3&utm_medium=api_v3_business_search&utm_source=xaZ1Joo3-9aWJr5cVO0Jdg", "review_count": 21, "categories": [{"alias": "boating", "title": "Boating"}, {"alias": "boatcharters", "title": "Boat Charters"}], "rating": 5.0, "coordinates": {"latitude": 25.783950805664062, "longitude": -80.19059753417969}, "transactions": [], "location": {"address1": "", "address2": "", "address3": "", "city": "Miami", "zip_code": "33132", "country": "US", "state": "FL", "display_address": ["Miami, FL 33132"]}, "phone": "+17862182454", "display_phone": "(786) 218-2454", "distance": 6203.905859940395}, {"id": "kLOTeC86GoLePK702GJzvA", "alias": "catamaran-adventure-charters-miami", "name": "Catamaran Adventure Charters", "image_url": "https://s3-media2.fl.yelpcdn.com/bphoto/Et8pZWQV769B-ak9JpPkbA/o.jpg", "is_closed": false, "url": "https://www.yelp.com/biz/catamaran-adventure-charters-miami?adjust_creative=xaZ1Joo3-9aWJr5cVO0Jdg&utm_campaign=yelp_api_v3&utm_medium=api_v3_business_search&utm_source=xaZ1Joo3-9aWJr5cVO0Jdg", "review_count": 9, "categories": [{"alias": "boatcharters", "title": "Boat Charters"}], "rating": 5.0, "coordinates": {"latitude": 25.7655902623883, "longitude": -80.1878956175664}, "transactions": [], "location": {"address1": "338 Brickell Key Dr", "address2": "", "address3": "Four Ambassadors Marina", "city": "Miami", "zip_code": "33131", "country": "US", "state": "FL", "display_address": ["338 Brickell Key Dr", "Four Ambassadors Marina", "Miami, FL 33131"]}, "phone": "+13056001011", "display_phone": "(305) 600-1011", "distance": 4428.038268331989}, {"id": "oEkQ5tEQXFH8X7Mo-UOHTA", "alias": "intimate-waterway-tours-fort-lauderdale", "name": "Intimate Waterway Tours", "image_url": "https://s3-media2.fl.yelpcdn.com/bphoto/dEPcgDcVzmBzt0DQmzgB9g/o.jpg", "is_closed": false, "url": "https://www.yelp.com/biz/intimate-waterway-tours-fort-lauderdale?adjust_creative=xaZ1Joo3-9aWJr5cVO0Jdg&utm_campaign=yelp_api_v3&utm_medium=api_v3_business_search&utm_source=xaZ1Joo3-9aWJr5cVO0Jdg", "review_count": 55, "categories": [{"alias": "boattours", "title": "Boat Tours"}], "rating": 5.0, "coordinates": {"latitude": 26.1175784, "longitude": -80.14312009999999}, "transactions": [], "location": {"address1": "2 S New River Dr W", "address2": null, "address3": "", "city": "Fort Lauderdale", "zip_code": "33301", "country": "US", "state": "FL", "display_address": ["2 S New River Dr W", "Fort Lauderdale, FL 33301"]}, "phone": "+19544884407", "display_phone": "(954) 488-4407", "distance": 38216.225407131}, {"id": "K3IPYmaK-xRlH24zNrOmcg", "alias": "carnival-breeze-miami-2", "name": "Carnival Breeze", "image_url": "https://s3-media2.fl.yelpcdn.com/bphoto/RplWMkhnWbWZ6Gr7YyyegA/o.jpg", "is_closed": false, "url": "https://www.yelp.com/biz/carnival-breeze-miami-2?adjust_creative=xaZ1Joo3-9aWJr5cVO0Jdg&utm_campaign=yelp_api_v3&utm_medium=api_v3_business_search&utm_source=xaZ1Joo3-9aWJr5cVO0Jdg", "review_count": 70, "categories": [{"alias": "travelservices", "title": "Travel Services"}, {"alias": "tours", "title": "Tours"}], "rating": 3.5, "coordinates": {"latitude": 25.775279, "longitude": -80.167577}, "transactions": [], "location": {"address1": "N Cruise Blvd", "address2": "", "address3": "Port Miami", "city": "Miami", "zip_code": "33132", "country": "US", "state": "FL", "display_address": ["N Cruise Blvd", "Port Miami", "Miami, FL 33132"]}, "phone": "+18003279501", "display_phone": "(800) 327-9501", "distance": 6138.28161621198}, {"id": "LfHgFliqwot5-LhU74XkMw", "alias": "virgin-voyages-miami-2", "name": "Virgin Voyages", "image_url": "https://s3-media2.fl.yelpcdn.com/bphoto/61B1jNks3V9N7dsfAnjNTw/o.jpg", "is_closed": false, "url": "https://www.yelp.com/biz/virgin-voyages-miami-2?adjust_creative=xaZ1Joo3-9aWJr5cVO0Jdg&utm_campaign=yelp_api_v3&utm_medium=api_v3_business_search&utm_source=xaZ1Joo3-9aWJr5cVO0Jdg", "review_count": 56, "categories": [{"alias": "travelagents", "title": "Travel Agents"}], "rating": 4.0, "coordinates": {"latitude": 25.77786927267137, "longitude": -80.1741100543821}, "transactions": [], "location": {"address1": "", "address2": "", "address3": null, "city": "Miami", "zip_code": "33132", "country": "US", "state": "FL", "display_address": ["Miami, FL 33132"]}, "phone": "+19544882955", "display_phone": "(954) 488-2955", "distance": 5455.507385245229}, {"id": "pM0HK7oAuUjmZqRqEQ3Opg", "alias": "seafair-miami-miami", "name": "SeaFair Miami", "image_url": "https://s3-media3.fl.yelpcdn.com/bphoto/HB5f8AUfwi5WfOwNSd_oEQ/o.jpg", "is_closed": false, "url": "https://www.yelp.com/biz/seafair-miami-miami?adjust_creative=xaZ1Joo3-9aWJr5cVO0Jdg&utm_campaign=yelp_api_v3&utm_medium=api_v3_business_search&utm_source=xaZ1Joo3-9aWJr5cVO0Jdg", "review_count": 10, "categories": [{"alias": "tours", "title": "Tours"}], "rating": 3.0, "coordinates": {"latitude": 25.772055, "longitude": -80.185849}, "transactions": [], "location": {"address1": "Bayfront Park South Dock", "address2": "", "address3": "Chopin Plaza", "city": "Miami", "zip_code": "33131", "country": "US", "state": "FL", "display_address": ["Bayfront Park South Dock", "Chopin Plaza", "Miami, FL 33131"]}, "phone": "+13057135030", "display_phone": "(305) 713-5030", "distance": 4412.340488996638}, {"id": "IykOHXn-E1LG81xbzURHdw", "alias": "miami-tours-and-water-adventures-miami-beach-3", "name": "Miami Tours & Water Adventures", "image_url": "https://s3-media1.fl.yelpcdn.com/bphoto/3YGuDA3D3ZmckCChjGzbBQ/o.jpg", "is_closed": false, "url": "https://www.yelp.com/biz/miami-tours-and-water-adventures-miami-beach-3?adjust_creative=xaZ1Joo3-9aWJr5cVO0Jdg&utm_campaign=yelp_api_v3&utm_medium=api_v3_business_search&utm_source=xaZ1Joo3-9aWJr5cVO0Jdg", "review_count": 125, "categories": [{"alias": "boatcharters", "title": "Boat Charters"}, {"alias": "boattours", "title": "Boat Tours"}, {"alias": "jetskis", "title": "Jet Skis"}], "rating": 4.5, "coordinates": {"latitude": 25.77401, "longitude": -80.139367}, "transactions": [], "location": {"address1": "429 Lenox Ave", "address2": null, "address3": "", "city": "Miami Beach", "zip_code": "33139", "country": "US", "state": "FL", "display_address": ["429 Lenox Ave", "Miami Beach, FL 33139"]}, "phone": "+13057729942", "display_phone": "(305) 772-9942", "distance": 8959.958501507983}, {"id": "JKl47TSzywk8ABQlDMfTzw", "alias": "royal-caribbean-cruise-lines-miami", "name": "Royal Caribbean Cruise Lines", "image_url": "https://s3-media1.fl.yelpcdn.com/bphoto/sr-WcKD1NcV3DXNvhmGVOA/o.jpg", "is_closed": false, "url": "https://www.yelp.com/biz/royal-caribbean-cruise-lines-miami?adjust_creative=xaZ1Joo3-9aWJr5cVO0Jdg&utm_campaign=yelp_api_v3&utm_medium=api_v3_business_search&utm_source=xaZ1Joo3-9aWJr5cVO0Jdg", "review_count": 1018, "categories": [{"alias": "travelservices", "title": "Travel Services"}], "rating": 2.0, "coordinates": {"latitude": 25.7752657, "longitude": -80.1777309}, "transactions": [], "location": {"address1": "1050 Caribbean Way", "address2": "", "address3": "", "city": "Miami", "zip_code": "33132", "country": "US", "state": "FL", "display_address": ["1050 Caribbean Way", "Miami, FL 33132"]}, "phone": "+13055396000", "display_phone": "(305) 539-6000", "distance": 5075.9290854936735}, {"id": "L46kuCAT31urYrM_ghTlpw", "alias": "lets-go-sailing-today-miami", "name": "Let's Go Sailing Today", "image_url": "https://s3-media4.fl.yelpcdn.com/bphoto/_fpipKSsKs6DLJN82KL4aw/o.jpg", "is_closed": false, "url": "https://www.yelp.com/biz/lets-go-sailing-today-miami?adjust_creative=xaZ1Joo3-9aWJr5cVO0Jdg&utm_campaign=yelp_api_v3&utm_medium=api_v3_business_search&utm_source=xaZ1Joo3-9aWJr5cVO0Jdg", "review_count": 24, "categories": [{"alias": "boatcharters", "title": "Boat Charters"}], "rating": 5.0, "coordinates": {"latitude": 25.7267385138061, "longitude": -80.2352558076382}, "transactions": [], "location": {"address1": "3400 Pan American Dr", "address2": "", "address3": "", "city": "Miami", "zip_code": "33133", "country": "US", "state": "FL", "display_address": ["3400 Pan American Dr", "Miami, FL 33133"]}, "phone": "+13056779616", "display_phone": "(305) 677-9616", "distance": 6243.732908639838}, {"id": "BiTqabLwllDMB6K2ImeakQ", "alias": "sailing-on-biscayne-bay-miami-3", "name": "Sailing On Biscayne Bay", "image_url": "https://s3-media1.fl.yelpcdn.com/bphoto/OcX4q7fDY5eh_xmitOuXWg/o.jpg", "is_closed": false, "url": "https://www.yelp.com/biz/sailing-on-biscayne-bay-miami-3?adjust_creative=xaZ1Joo3-9aWJr5cVO0Jdg&utm_campaign=yelp_api_v3&utm_medium=api_v3_business_search&utm_source=xaZ1Joo3-9aWJr5cVO0Jdg", "review_count": 30, "categories": [{"alias": "boating", "title": "Boating"}, {"alias": "boatcharters", "title": "Boat Charters"}, {"alias": "sailing", "title": "Sailing"}], "rating": 4.5, "coordinates": {"latitude": 25.7318058013916, "longitude": -80.2408599853516}, "transactions": [], "location": {"address1": null, "address2": null, "address3": null, "city": "Miami", "zip_code": "33133", "country": "US", "state": "FL", "display_address": ["Miami, FL 33133"]}, "phone": "+13053230783", "display_phone": "(305) 323-0783", "distance": 5830.658234583766}, {"id": "qC_63I79BqdDMP1jjgQeDQ", "alias": "life-is-great-yacht-charters-miami-beach-2", "name": "Life Is Great Yacht Charters", "image_url": "https://s3-media2.fl.yelpcdn.com/bphoto/dY04FJA_jEDIPvekBxdk2A/o.jpg", "is_closed": false, "url": "https://www.yelp.com/biz/life-is-great-yacht-charters-miami-beach-2?adjust_creative=xaZ1Joo3-9aWJr5cVO0Jdg&utm_campaign=yelp_api_v3&utm_medium=api_v3_business_search&utm_source=xaZ1Joo3-9aWJr5cVO0Jdg", "review_count": 3, "categories": [{"alias": "boatcharters", "title": "Boat Charters"}], "rating": 5.0, "coordinates": {"latitude": 25.77166708481107, "longitude": -80.13957031165664}, "transactions": [], "location": {"address1": "300 Alton Rd", "address2": null, "address3": "", "city": "Miami Beach", "zip_code": "33139", "country": "US", "state": "FL", "display_address": ["300 Alton Rd", "Miami Beach, FL 33139"]}, "phone": "+15189923088", "display_phone": "(518) 992-3088", "distance": 8971.197634267557}, {"id": "OQvd3X4VEuWOBXKBiSrVOg", "alias": "norwegian-getaway-downtown-miami", "name": "Norwegian Getaway", "image_url": "https://s3-media2.fl.yelpcdn.com/bphoto/yIZrP3yPaYU52hOVhwFTJw/o.jpg", "is_closed": false, "url": "https://www.yelp.com/biz/norwegian-getaway-downtown-miami?adjust_creative=xaZ1Joo3-9aWJr5cVO0Jdg&utm_campaign=yelp_api_v3&utm_medium=api_v3_business_search&utm_source=xaZ1Joo3-9aWJr5cVO0Jdg", "review_count": 78, "categories": [{"alias": "tours", "title": "Tours"}], "rating": 3.0, "coordinates": {"latitude": 25.76913, "longitude": -80.18998}, "transactions": [], "location": {"address1": null, "address2": "", "address3": "", "city": "Downtown Miami", "zip_code": "33132", "country": "US", "state": "FL", "display_address": ["Downtown Miami, FL 33132"]}, "phone": "", "display_phone": "", "distance": 6203.905859940395}, {"id": "xsjoyqb4-Xo6KvQb8nmYpA", "alias": "problue-marine-miami", "name": "Problue Marine", "image_url": "https://s3-media1.fl.yelpcdn.com/bphoto/mfR7tb1-UAEDrR4NWfX_dg/o.jpg", "is_closed": false, "url": "https://www.yelp.com/biz/problue-marine-miami?adjust_creative=xaZ1Joo3-9aWJr5cVO0Jdg&utm_campaign=yelp_api_v3&utm_medium=api_v3_business_search&utm_source=xaZ1Joo3-9aWJr5cVO0Jdg", "review_count": 10, "categories": [{"alias": "boatcharters", "title": "Boat Charters"}], "rating": 5.0, "coordinates": {"latitude": 25.729073, "longitude": -80.233048}, "transactions": [], "location": {"address1": "3385 Pan American Dr", "address2": "", "address3": "", "city": "Miami", "zip_code": "33133", "country": "US", "state": "FL", "display_address": ["3385 Pan American Dr", "Miami, FL 33133"]}, "phone": "+13057767396", "display_phone": "(305) 776-7396", "distance": 5964.30692909164}, {"id": "HxPr_OVmDkY5HjmcJag21Q", "alias": "margaritaville-at-sea-riviera-beach-2", "name": "Margaritaville at Sea", "image_url": "https://s3-media2.fl.yelpcdn.com/bphoto/IqM1QnM1Octw9J5tkafw8g/o.jpg", "is_closed": false, "url": "https://www.yelp.com/biz/margaritaville-at-sea-riviera-beach-2?adjust_creative=xaZ1Joo3-9aWJr5cVO0Jdg&utm_campaign=yelp_api_v3&utm_medium=api_v3_business_search&utm_source=xaZ1Joo3-9aWJr5cVO0Jdg", "review_count": 98, "categories": [{"alias": "travelservices", "title": "Travel Services"}, {"alias": "boatcharters", "title": "Boat Charters"}, {"alias": "boattours", "title": "Boat Tours"}], "rating": 2.0, "coordinates": {"latitude": 26.72209, "longitude": -80.10232}, "transactions": [], "location": {"address1": "1 E 11th St", "address2": "", "address3": null, "city": "Riviera Beach", "zip_code": "33404", "country": "US", "state": "FL", "display_address": ["1 E 11th St", "Riviera Beach, FL 33404"]}, "phone": "+18008147100", "display_phone": "(800) 814-7100", "distance": 111287.61060649788}, {"id": "x3QdHzc6ahwitHnTS55bSg", "alias": "miami-party-boat-rentals-miami", "name": "Miami Party Boat Rentals", "image_url": "https://s3-media1.fl.yelpcdn.com/bphoto/XQd6XGb0-ffnAEMfLYLWzQ/o.jpg", "is_closed": false, "url": "https://www.yelp.com/biz/miami-party-boat-rentals-miami?adjust_creative=xaZ1Joo3-9aWJr5cVO0Jdg&utm_campaign=yelp_api_v3&utm_medium=api_v3_business_search&utm_source=xaZ1Joo3-9aWJr5cVO0Jdg", "review_count": 62, "categories": [{"alias": "boating", "title": "Boating"}, {"alias": "boatcharters", "title": "Boat Charters"}], "rating": 4.5, "coordinates": {"latitude": 25.929227068257873, "longitude": -80.12798554191401}, "transactions": [], "location": {"address1": "400 Sunny Isles Blvd", "address2": "", "address3": "", "city": "Miami", "zip_code": "33160", "country": "US", "state": "FL", "display_address": ["400 Sunny Isles Blvd", "Miami, FL 33160"]}, "phone": "+15082509644", "display_phone": "(508) 250-9644", "distance": 19154.1767497661}, {"id": "CZGOoGr22ZHmzGNSe45K_Q", "alias": "duck-tours-south-beach-miami-beach", "name": "Duck Tours South Beach", "image_url": "https://s3-media1.fl.yelpcdn.com/bphoto/wxRqxJw54sQfGBr9yMVAgg/o.jpg", "is_closed": false, "url": "https://www.yelp.com/biz/duck-tours-south-beach-miami-beach?adjust_creative=xaZ1Joo3-9aWJr5cVO0Jdg&utm_campaign=yelp_api_v3&utm_medium=api_v3_business_search&utm_source=xaZ1Joo3-9aWJr5cVO0Jdg", "review_count": 288, "categories": [{"alias": "tours", "title": "Tours"}], "rating": 4.0, "coordinates": {"latitude": 25.79114, "longitude": -80.13052}, "transactions": [], "location": {"address1": "1661 James Ave", "address2": "", "address3": "", "city": "Miami Beach", "zip_code": "33139", "country": "US", "state": "FL", "display_address": ["1661 James Ave", "Miami Beach, FL 33139"]}, "phone": "+13056732217", "display_phone": "(305) 673-2217", "distance": 9839.087179005368}, {"id": "KgJ_nNnuDll5q59yfsHcKQ", "alias": "everglades-holiday-park-fort-lauderdale-5", "name": "Everglades Holiday Park", "image_url": "https://s3-media1.fl.yelpcdn.com/bphoto/fkYkY3u1cGxzvwM7Mh9oBA/o.jpg", "is_closed": false, "url": "https://www.yelp.com/biz/everglades-holiday-park-fort-lauderdale-5?adjust_creative=xaZ1Joo3-9aWJr5cVO0Jdg&utm_campaign=yelp_api_v3&utm_medium=api_v3_business_search&utm_source=xaZ1Joo3-9aWJr5cVO0Jdg", "review_count": 824, "categories": [{"alias": "parks", "title": "Parks"}, {"alias": "tours", "title": "Tours"}], "rating": 4.0, "coordinates": {"latitude": 26.0608457592371, "longitude": -80.4449329362457}, "transactions": [], "location": {"address1": "21940 Griffin Rd", "address2": "", "address3": "", "city": "Fort Lauderdale", "zip_code": "33332", "country": "US", "state": "FL", "display_address": ["21940 Griffin Rd", "Fort Lauderdale, FL 33332"]}, "phone": "+19544348111", "display_phone": "(954) 434-8111", "distance": 37772.99229889265}, {"id": "fHtrGneZYQayaB4fhfu9jw", "alias": "oceania-cruises-miami-3", "name": "Oceania Cruises", "image_url": "https://s3-media1.fl.yelpcdn.com/bphoto/aCb17n5FhH5uriFMPa1TRQ/o.jpg", "is_closed": false, "url": "https://www.yelp.com/biz/oceania-cruises-miami-3?adjust_creative=xaZ1Joo3-9aWJr5cVO0Jdg&utm_campaign=yelp_api_v3&utm_medium=api_v3_business_search&utm_source=xaZ1Joo3-9aWJr5cVO0Jdg", "review_count": 80, "categories": [{"alias": "tours", "title": "Tours"}], "rating": 2.0, "coordinates": {"latitude": 25.79841, "longitude": -80.31955}, "transactions": [], "location": {"address1": "", "address2": "", "address3": "", "city": "Miami", "zip_code": "33122", "country": "US", "state": "FL", "display_address": ["Miami, FL 33122"]}, "phone": "+13055142300", "display_phone": "(305) 514-2300", "distance": 9325.948714556449}, {"id": "Q6irNhdwwurFQJYDhNPy4g", "alias": "pauls-miami-boat-tours-miami-beach", "name": "Paul's Miami Boat Tours", "image_url": "https://s3-media4.fl.yelpcdn.com/bphoto/KY3FV0lwHSNsi7um5aKdIg/o.jpg", "is_closed": false, "url": "https://www.yelp.com/biz/pauls-miami-boat-tours-miami-beach?adjust_creative=xaZ1Joo3-9aWJr5cVO0Jdg&utm_campaign=yelp_api_v3&utm_medium=api_v3_business_search&utm_source=xaZ1Joo3-9aWJr5cVO0Jdg", "review_count": 9, "categories": [{"alias": "boattours", "title": "Boat Tours"}, {"alias": "boatcharters", "title": "Boat Charters"}], "rating": 5.0, "coordinates": {"latitude": 25.8613700866699, "longitude": -80.125732421875}, "transactions": [], "location": {"address1": null, "address2": null, "address3": "", "city": "Miami Beach", "zip_code": "33141", "country": "US", "state": "FL", "display_address": ["Miami Beach, FL 33141"]}, "phone": "+13058471778", "display_phone": "(305) 847-1778", "distance": 11239.926196750592}, {"id": "m2Q1VElVzjSu6NGX-Dx1ww", "alias": "art-deco-tours-miami-beach-2", "name": "Art Deco Tours", "image_url": "https://s3-media4.fl.yelpcdn.com/bphoto/vHdoJ4-oN-xt2SzBWRQVkg/o.jpg", "is_closed": false, "url": "https://www.yelp.com/biz/art-deco-tours-miami-beach-2?adjust_creative=xaZ1Joo3-9aWJr5cVO0Jdg&utm_campaign=yelp_api_v3&utm_medium=api_v3_business_search&utm_source=xaZ1Joo3-9aWJr5cVO0Jdg", "review_count": 49, "categories": [{"alias": "tours", "title": "Tours"}], "rating": 5.0, "coordinates": {"latitude": 25.7807565155031, "longitude": -80.1328537761719}, "transactions": [], "location": {"address1": "", "address2": "", "address3": "", "city": "Miami Beach", "zip_code": "33139", "country": "US", "state": "FL", "display_address": ["Miami Beach, FL 33139"]}, "phone": "+13058144058", "display_phone": "(305) 814-4058", "distance": 9563.523092542384}, {"id": "QIwPFLsquv0usGexqIN0YA", "alias": "south-beach-party-boats-miami", "name": "South Beach Party Boats", "image_url": "https://s3-media1.fl.yelpcdn.com/bphoto/qD06C5Qy8KJ9cmJ8qT60pg/o.jpg", "is_closed": false, "url": "https://www.yelp.com/biz/south-beach-party-boats-miami?adjust_creative=xaZ1Joo3-9aWJr5cVO0Jdg&utm_campaign=yelp_api_v3&utm_medium=api_v3_business_search&utm_source=xaZ1Joo3-9aWJr5cVO0Jdg", "review_count": 66, "categories": [{"alias": "boatcharters", "title": "Boat Charters"}, {"alias": "boating", "title": "Boating"}], "rating": 3.0, "coordinates": {"latitude": 25.8476152, "longitude": -80.1868555}, "transactions": [], "location": {"address1": "450 NE 79th St", "address2": "", "address3": "", "city": "Miami", "zip_code": "33138", "country": "US", "state": "FL", "display_address": ["450 NE 79th St", "Miami, FL 33138"]}, "phone": "+17865297787", "display_phone": "(786) 529-7787", "distance": 8280.522192685776}, {"id": "KPZoIYNfq82B0BPAh0Ymog", "alias": "quantum-of-the-seas-miami", "name": "Quantum of the Seas", "image_url": "https://s3-media2.fl.yelpcdn.com/bphoto/vpf_pOcteMj9DrnvnUBjBA/o.jpg", "is_closed": false, "url": "https://www.yelp.com/biz/quantum-of-the-seas-miami?adjust_creative=xaZ1Joo3-9aWJr5cVO0Jdg&utm_campaign=yelp_api_v3&utm_medium=api_v3_business_search&utm_source=xaZ1Joo3-9aWJr5cVO0Jdg", "review_count": 2, "categories": [{"alias": "tours", "title": "Tours"}], "rating": 4.5, "coordinates": {"latitude": 25.7765593675433, "longitude": -80.1781874522567}, "transactions": [], "location": {"address1": "1050 Caribbean Way", "address2": "", "address3": "", "city": "Miami", "zip_code": "33132", "country": "US", "state": "FL", "display_address": ["1050 Caribbean Way", "Miami, FL 33132"]}, "phone": "", "display_phone": "", "distance": 5066.349437075354}, {"id": "dJEkNvooQMTnyGFTR74LaQ", "alias": "everglades-airboat-expeditions-miami", "name": "Everglades Airboat Expeditions", "image_url": "https://s3-media2.fl.yelpcdn.com/bphoto/z65TCkB3bbdN91bKbeAoQg/o.jpg", "is_closed": false, "url": "https://www.yelp.com/biz/everglades-airboat-expeditions-miami?adjust_creative=xaZ1Joo3-9aWJr5cVO0Jdg&utm_campaign=yelp_api_v3&utm_medium=api_v3_business_search&utm_source=xaZ1Joo3-9aWJr5cVO0Jdg", "review_count": 34, "categories": [{"alias": "boattours", "title": "Boat Tours"}], "rating": 5.0, "coordinates": {"latitude": 25.761077785274203, "longitude": -80.50243066146415}, "transactions": [], "location": {"address1": null, "address2": null, "address3": null, "city": "Miami", "zip_code": "33194", "country": "US", "state": "FL", "display_address": ["Miami, FL 33194"]}, "phone": "+18883858687", "display_phone": "(888) 385-8687", "distance": 27548.767303176774}, {"id": "Dp-q51tsIQ24YQhoGHgWCw", "alias": "miami-aqua-tours-miami", "name": "Miami Aqua Tours", "image_url": "https://s3-media3.fl.yelpcdn.com/bphoto/XGR1-rEam0sJze67_VyfiA/o.jpg", "is_closed": false, "url": "https://www.yelp.com/biz/miami-aqua-tours-miami?adjust_creative=xaZ1Joo3-9aWJr5cVO0Jdg&utm_campaign=yelp_api_v3&utm_medium=api_v3_business_search&utm_source=xaZ1Joo3-9aWJr5cVO0Jdg", "review_count": 55, "categories": [{"alias": "boatcharters", "title": "Boat Charters"}, {"alias": "boattours", "title": "Boat Tours"}], "rating": 2.5, "coordinates": {"latitude": 25.777685303257705, "longitude": -80.1859931411052}, "transactions": [], "location": {"address1": "401 Biscayne Blvd", "address2": null, "address3": "", "city": "Miami", "zip_code": "33132", "country": "US", "state": "FL", "display_address": ["401 Biscayne Blvd", "Miami, FL 33132"]}, "phone": "+13053587600", "display_phone": "(305) 358-7600", "distance": 4275.141717746515}, {"id": "i8oy2OfIyA6ESdH5iZ2t6A", "alias": "genesis-yacht-charters-miami", "name": "Genesis Yacht Charters", "image_url": "https://s3-media3.fl.yelpcdn.com/bphoto/5-HZZqjlrX6ugCSYPCRKBg/o.jpg", "is_closed": false, "url": "https://www.yelp.com/biz/genesis-yacht-charters-miami?adjust_creative=xaZ1Joo3-9aWJr5cVO0Jdg&utm_campaign=yelp_api_v3&utm_medium=api_v3_business_search&utm_source=xaZ1Joo3-9aWJr5cVO0Jdg", "review_count": 16, "categories": [{"alias": "boatcharters", "title": "Boat Charters"}, {"alias": "sailing", "title": "Sailing"}, {"alias": "boating", "title": "Boating"}], "rating": 5.0, "coordinates": {"latitude": 25.732226, "longitude": -80.232429}, "transactions": [], "location": {"address1": "2550 S Bayshore Dr", "address2": null, "address3": "", "city": "Miami", "zip_code": "33133", "country": "US", "state": "FL", "display_address": ["2550 S Bayshore Dr", "Miami, FL 33133"]}, "phone": "+13052093308", "display_phone": "(305) 209-3308", "distance": 5610.78834110894}, {"id": "0VlqsXMdd1hVVVI9mr6w8w", "alias": "ra-charters-miami-3", "name": "RA Charters", "image_url": "https://s3-media2.fl.yelpcdn.com/bphoto/GVRM8Y2Xi32OwiWqfPWExQ/o.jpg", "is_closed": false, "url": "https://www.yelp.com/biz/ra-charters-miami-3?adjust_creative=xaZ1Joo3-9aWJr5cVO0Jdg&utm_campaign=yelp_api_v3&utm_medium=api_v3_business_search&utm_source=xaZ1Joo3-9aWJr5cVO0Jdg", "review_count": 10, "categories": [{"alias": "boatcharters", "title": "Boat Charters"}, {"alias": "sailing", "title": "Sailing"}], "rating": 5.0, "coordinates": {"latitude": 25.7271916, "longitude": -80.2359672}, "transactions": [], "location": {"address1": "3400 Pan American Dr", "address2": "", "address3": "", "city": "Miami", "zip_code": "33133", "country": "US", "state": "FL", "display_address": ["3400 Pan American Dr", "Miami, FL 33133"]}, "phone": "+17862555662", "display_phone": "(786) 255-5662", "distance": 6242.269581858832}, {"id": "uocjFphLDtnRAOzFQTXRfw", "alias": "disney-cruise-line-miami", "name": "Disney Cruise Line", "image_url": "https://s3-media2.fl.yelpcdn.com/bphoto/kTqVWBUoCkIecTxFpEmzEA/o.jpg", "is_closed": false, "url": "https://www.yelp.com/biz/disney-cruise-line-miami?adjust_creative=xaZ1Joo3-9aWJr5cVO0Jdg&utm_campaign=yelp_api_v3&utm_medium=api_v3_business_search&utm_source=xaZ1Joo3-9aWJr5cVO0Jdg", "review_count": 79, "categories": [{"alias": "transport", "title": "Transportation"}], "rating": 4.5, "coordinates": {"latitude": 25.77888, "longitude": -80.19793}, "transactions": [], "location": {"address1": "", "address2": "", "address3": "", "city": "Miami", "zip_code": "33101", "country": "US", "state": "FL", "display_address": ["Miami, FL 33101"]}, "phone": "+18009513532", "display_phone": "(800) 951-3532", "distance": 2974.3751460334574}, {"id": "VkdtCMovs1JMZUKZBinNdw", "alias": "play-time-water-sports-miami-beach", "name": "Play Time Water Sports", "image_url": "https://s3-media2.fl.yelpcdn.com/bphoto/382XVr8Pl5OpyhCUqslHLA/o.jpg", "is_closed": false, "url": "https://www.yelp.com/biz/play-time-water-sports-miami-beach?adjust_creative=xaZ1Joo3-9aWJr5cVO0Jdg&utm_campaign=yelp_api_v3&utm_medium=api_v3_business_search&utm_source=xaZ1Joo3-9aWJr5cVO0Jdg", "review_count": 77, "categories": [{"alias": "boatcharters", "title": "Boat Charters"}, {"alias": "boating", "title": "Boating"}, {"alias": "sailing", "title": "Sailing"}], "rating": 4.0, "coordinates": {"latitude": 25.7654593493781, "longitude": -80.1882585763917}, "transactions": [], "location": {"address1": "300 Alton Rd", "address2": "", "address3": "", "city": "Miami Beach", "zip_code": "33139", "country": "US", "state": "FL", "display_address": ["300 Alton Rd", "Miami Beach, FL 33139"]}, "phone": "+15167786738", "display_phone": "(516) 778-6738", "distance": 4441.0699081815565}, {"id": "xmsHo_GUvNSUIjfQiLX8gA", "alias": "water-fantaseas-miami-beach-3", "name": "Water Fantaseas", "image_url": "https://s3-media3.fl.yelpcdn.com/bphoto/UJX_CdiqLosymB6I0DmzVQ/o.jpg", "is_closed": false, "url": "https://www.yelp.com/biz/water-fantaseas-miami-beach-3?adjust_creative=xaZ1Joo3-9aWJr5cVO0Jdg&utm_campaign=yelp_api_v3&utm_medium=api_v3_business_search&utm_source=xaZ1Joo3-9aWJr5cVO0Jdg", "review_count": 8, "categories": [{"alias": "boating", "title": "Boating"}, {"alias": "boatcharters", "title": "Boat Charters"}], "rating": 2.0, "coordinates": {"latitude": 25.7880447, "longitude": -80.1407957}, "transactions": [], "location": {"address1": "1521 Alton Rd", "address2": "Ste 802", "address3": "", "city": "Miami Beach", "zip_code": "33139", "country": "US", "state": "FL", "display_address": ["1521 Alton Rd", "Ste 802", "Miami Beach, FL 33139"]}, "phone": "+13055311480", "display_phone": "(305) 531-1480", "distance": 8787.305610167676}, {"id": "X53XpZOEB8QNZbVWlqPfsQ", "alias": "norwegian-cruise-line-miami-2", "name": "Norwegian Cruise Line", "image_url": "https://s3-media2.fl.yelpcdn.com/bphoto/lk4a_FuTxLx4nnknUD57sA/o.jpg", "is_closed": false, "url": "https://www.yelp.com/biz/norwegian-cruise-line-miami-2?adjust_creative=xaZ1Joo3-9aWJr5cVO0Jdg&utm_campaign=yelp_api_v3&utm_medium=api_v3_business_search&utm_source=xaZ1Joo3-9aWJr5cVO0Jdg", "review_count": 829, "categories": [{"alias": "travelservices", "title": "Travel Services"}], "rating": 1.5, "coordinates": {"latitude": 25.791714677447544, "longitude": -80.3203532}, "transactions": [], "location": {"address1": "7665 Corporate Ctr Dr", "address2": null, "address3": "", "city": "Miami", "zip_code": "33126", "country": "US", "state": "FL", "display_address": ["7665 Corporate Ctr Dr", "Miami, FL 33126"]}, "phone": "+18662347350", "display_phone": "(866) 234-7350", "distance": 9268.002559520215}, {"id": "5ExU02yNN_bfsxBHgGSCtQ", "alias": "cruzan-yacht-charters-miami-3", "name": "Cruzan Yacht Charters", "image_url": "https://s3-media2.fl.yelpcdn.com/bphoto/9-0jGJW-u_DsV1FB1qv3-A/o.jpg", "is_closed": false, "url": "https://www.yelp.com/biz/cruzan-yacht-charters-miami-3?adjust_creative=xaZ1Joo3-9aWJr5cVO0Jdg&utm_campaign=yelp_api_v3&utm_medium=api_v3_business_search&utm_source=xaZ1Joo3-9aWJr5cVO0Jdg", "review_count": 2, "categories": [{"alias": "boatcharters", "title": "Boat Charters"}, {"alias": "boating", "title": "Boating"}], "rating": 5.0, "coordinates": {"latitude": 25.60181, "longitude": -80.3347}, "transactions": [], "location": {"address1": "18120 Sw 88th Ct", "address2": "", "address3": null, "city": "Miami", "zip_code": "33157", "country": "US", "state": "FL", "display_address": ["18120 Sw 88th Ct", "Miami, FL 33157"]}, "phone": "+13058582822", "display_phone": "(305) 858-2822", "distance": 22744.771267641907}, {"id": "tEBEMp7Vaq9zEOzqhP97eQ", "alias": "miami-marriott-biscayne-bay-miami-2", "name": "Miami Marriott Biscayne Bay", "image_url": "https://s3-media1.fl.yelpcdn.com/bphoto/LWUHbPwW1_bPf97n7KfDhg/o.jpg", "is_closed": false, "url": "https://www.yelp.com/biz/miami-marriott-biscayne-bay-miami-2?adjust_creative=xaZ1Joo3-9aWJr5cVO0Jdg&utm_campaign=yelp_api_v3&utm_medium=api_v3_business_search&utm_source=xaZ1Joo3-9aWJr5cVO0Jdg", "review_count": 331, "categories": [{"alias": "hotels", "title": "Hotels"}, {"alias": "venues", "title": "Venues & Event Spaces"}], "rating": 3.5, "coordinates": {"latitude": 25.790872, "longitude": -80.186179}, "transactions": [], "price": "$$", "location": {"address1": "1633 N Bayshore Dr", "address2": "", "address3": "", "city": "Miami", "zip_code": "33132", "country": "US", "state": "FL", "display_address": ["1633 N Bayshore Dr", "Miami, FL 33132"]}, "phone": "+13053743900", "display_phone": "(305) 374-3900", "distance": 4322.382764703179}, {"id": "UMCtE6FdktSIwYKUravnqg", "alias": "jiffy-jeff-transportation-ft-lauderdale-4", "name": "Jiffy Jeff Transportation", "image_url": "https://s3-media3.fl.yelpcdn.com/bphoto/DEJfWzjhwm8WtijOMmkekA/o.jpg", "is_closed": false, "url": "https://www.yelp.com/biz/jiffy-jeff-transportation-ft-lauderdale-4?adjust_creative=xaZ1Joo3-9aWJr5cVO0Jdg&utm_campaign=yelp_api_v3&utm_medium=api_v3_business_search&utm_source=xaZ1Joo3-9aWJr5cVO0Jdg", "review_count": 84, "categories": [{"alias": "airport_shuttles", "title": "Airport Shuttles"}], "rating": 4.5, "coordinates": {"latitude": 26.10068167, "longitude": -80.13590167}, "transactions": [], "location": {"address1": "717 SE 17th St", "address2": "Ste 124", "address3": "", "city": "Ft Lauderdale", "zip_code": "33316", "country": "US", "state": "FL", "display_address": ["717 SE 17th St", "Ste 124", "Ft Lauderdale, FL 33316"]}, "phone": "+13055886143", "display_phone": "(305) 588-6143", "distance": 36565.825321142256}, {"id": "KNrezB_087lvt0nzzd4KvA", "alias": "y-charter-miami-miami-beach-2", "name": "Y Charter Miami", "image_url": "https://s3-media3.fl.yelpcdn.com/bphoto/l6cM9DKUZgAM-LNu28BtKg/o.jpg", "is_closed": false, "url": "https://www.yelp.com/biz/y-charter-miami-miami-beach-2?adjust_creative=xaZ1Joo3-9aWJr5cVO0Jdg&utm_campaign=yelp_api_v3&utm_medium=api_v3_business_search&utm_source=xaZ1Joo3-9aWJr5cVO0Jdg", "review_count": 18, "categories": [{"alias": "boating", "title": "Boating"}, {"alias": "boatcharters", "title": "Boat Charters"}], "rating": 4.0, "coordinates": {"latitude": 25.7908924, "longitude": -80.1321414}, "transactions": [], "location": {"address1": "407 Lincoln Rd", "address2": "Ste 503", "address3": "", "city": "Miami Beach", "zip_code": "33139", "country": "US", "state": "FL", "display_address": ["407 Lincoln Rd", "Ste 503", "Miami Beach, FL 33139"]}, "phone": "+13059995839", "display_phone": "(305) 999-5839", "distance": 9677.000760826368}, {"id": "M2C_BBJJY2Y8n_IkoIArGg", "alias": "blue-infinity-charters-miami-beach-3", "name": "Blue Infinity Charters", "image_url": "https://s3-media1.fl.yelpcdn.com/bphoto/l4nKcVNsCWa7YGzuNnVvBg/o.jpg", "is_closed": false, "url": "https://www.yelp.com/biz/blue-infinity-charters-miami-beach-3?adjust_creative=xaZ1Joo3-9aWJr5cVO0Jdg&utm_campaign=yelp_api_v3&utm_medium=api_v3_business_search&utm_source=xaZ1Joo3-9aWJr5cVO0Jdg", "review_count": 3, "categories": [{"alias": "boatcharters", "title": "Boat Charters"}], "rating": 5.0, "coordinates": {"latitude": 25.785629272460938, "longitude": -80.1363754272461}, "transactions": [], "location": {"address1": null, "address2": null, "address3": null, "city": "Miami Beach", "zip_code": "33139", "country": "US", "state": "FL", "display_address": ["Miami Beach, FL 33139"]}, "phone": "+17862360728", "display_phone": "(786) 236-0728", "distance": 8001.16650419453}, {"id": "VJD8JL-78vto0u6k0o7YhA", "alias": "deco-divers-miami-beach", "name": "Deco Divers", "image_url": "https://s3-media3.fl.yelpcdn.com/bphoto/sA6jx_JV5qNQcomj8pm-GQ/o.jpg", "is_closed": false, "url": "https://www.yelp.com/biz/deco-divers-miami-beach?adjust_creative=xaZ1Joo3-9aWJr5cVO0Jdg&utm_campaign=yelp_api_v3&utm_medium=api_v3_business_search&utm_source=xaZ1Joo3-9aWJr5cVO0Jdg", "review_count": 18, "categories": [{"alias": "boatcharters", "title": "Boat Charters"}, {"alias": "scuba", "title": "Scuba Diving"}, {"alias": "snorkeling", "title": "Snorkeling"}], "rating": 4.5, "coordinates": {"latitude": 25.7710686053083, "longitude": -80.1393486027552}, "transactions": [], "location": {"address1": "300 Alton Rd", "address2": "", "address3": null, "city": "Miami Beach", "zip_code": "33139", "country": "US", "state": "FL", "display_address": ["300 Alton Rd", "Miami Beach, FL 33139"]}, "phone": "+13058616277", "display_phone": "(305) 861-6277", "distance": 9002.408737279307}, {"id": "TdgBrYPjVBLpJM-FsDKX0Q", "alias": "le-bistro-aboard-norwegian-star-miami", "name": "Le Bistro Aboard Norwegian Star", "image_url": "https://s3-media1.fl.yelpcdn.com/bphoto/P-oAXl6DCePFewGCjAImRA/o.jpg", "is_closed": false, "url": "https://www.yelp.com/biz/le-bistro-aboard-norwegian-star-miami?adjust_creative=xaZ1Joo3-9aWJr5cVO0Jdg&utm_campaign=yelp_api_v3&utm_medium=api_v3_business_search&utm_source=xaZ1Joo3-9aWJr5cVO0Jdg", "review_count": 3, "categories": [{"alias": "travelservices", "title": "Travel Services"}], "rating": 5.0, "coordinates": {"latitude": 25.774546, "longitude": -80.170879}, "transactions": [], "location": {"address1": "766 South Corporate Center Dr", "address2": "", "address3": "Port of Miami", "city": "Miami", "zip_code": "33132", "country": "US", "state": "FL", "display_address": ["766 South Corporate Center Dr", "Port of Miami", "Miami, FL 33132"]}, "phone": "+18662347350", "display_phone": "(866) 234-7350", "distance": 5822.604165866551}, {"id": "Yyp1xGnsYH2sCmv2N7ukaw", "alias": "twysted-lyfe-charters-miami-beach-miami-beach", "name": "Twysted Lyfe Charters Miami Beach", "image_url": "https://s3-media2.fl.yelpcdn.com/bphoto/sxDH0XjNLHexdCDUrWnmLg/o.jpg", "is_closed": false, "url": "https://www.yelp.com/biz/twysted-lyfe-charters-miami-beach-miami-beach?adjust_creative=xaZ1Joo3-9aWJr5cVO0Jdg&utm_campaign=yelp_api_v3&utm_medium=api_v3_business_search&utm_source=xaZ1Joo3-9aWJr5cVO0Jdg", "review_count": 15, "categories": [{"alias": "fishing", "title": "Fishing"}, {"alias": "boatcharters", "title": "Boat Charters"}], "rating": 4.5, "coordinates": {"latitude": 25.906476930444583, "longitude": -80.12303881095083}, "transactions": [], "location": {"address1": "10800 Collins Ave", "address2": "", "address3": "", "city": "Miami Beach", "zip_code": "33154", "country": "US", "state": "FL", "display_address": ["10800 Collins Ave", "Miami Beach, FL 33154"]}, "phone": "+13055706420", "display_phone": "(305) 570-6420", "distance": 17348.47189442805}, {"id": "XktcWJSyhUATjvqzN7Kb8g", "alias": "carnival-sunrise-miami-3", "name": "Carnival Sunrise", "image_url": "https://s3-media1.fl.yelpcdn.com/bphoto/ZKVhhkWG6agSU9yxLzoTQg/o.jpg", "is_closed": false, "url": "https://www.yelp.com/biz/carnival-sunrise-miami-3?adjust_creative=xaZ1Joo3-9aWJr5cVO0Jdg&utm_campaign=yelp_api_v3&utm_medium=api_v3_business_search&utm_source=xaZ1Joo3-9aWJr5cVO0Jdg", "review_count": 8, "categories": [{"alias": "tours", "title": "Tours"}, {"alias": "steak", "title": "Steakhouses"}, {"alias": "burgers", "title": "Burgers"}], "rating": 4.0, "coordinates": {"latitude": 25.778740985742267, "longitude": -80.17791822552681}, "transactions": [], "location": {"address1": "1015 N America Way", "address2": "", "address3": null, "city": "Miami", "zip_code": "33132", "country": "US", "state": "FL", "display_address": ["1015 N America Way", "Miami, FL 33132"]}, "phone": "", "display_phone": "", "distance": 5067.042571795381}, {"id": "2Wyti4Gh9md-ZY99mDa5Tg", "alias": "reel-adventure-charters-miami-beach", "name": "Reel Adventure Charters", "image_url": "https://s3-media2.fl.yelpcdn.com/bphoto/8YNjiM7Rf5AHQSXXVhialQ/o.jpg", "is_closed": false, "url": "https://www.yelp.com/biz/reel-adventure-charters-miami-beach?adjust_creative=xaZ1Joo3-9aWJr5cVO0Jdg&utm_campaign=yelp_api_v3&utm_medium=api_v3_business_search&utm_source=xaZ1Joo3-9aWJr5cVO0Jdg", "review_count": 33, "categories": [{"alias": "boatcharters", "title": "Boat Charters"}, {"alias": "fishing", "title": "Fishing"}, {"alias": "tours", "title": "Tours"}], "rating": 4.5, "coordinates": {"latitude": 25.9042676928438, "longitude": -80.1251515562363}, "transactions": [], "location": {"address1": "10800 Collins Ave", "address2": "", "address3": "", "city": "Miami Beach", "zip_code": "33154", "country": "US", "state": "FL", "display_address": ["10800 Collins Ave", "Miami Beach, FL 33154"]}, "phone": "+13057850552", "display_phone": "(305) 785-0552", "distance": 17024.969285780233}, {"id": "IAO3hu0E8HQtgQ00RTu9YA", "alias": "cycle-party-miami-miami-3", "name": "Cycle Party Miami", "image_url": "https://s3-media3.fl.yelpcdn.com/bphoto/cs-qiMJoXRAWPe750bc-NQ/o.jpg", "is_closed": false, "url": "https://www.yelp.com/biz/cycle-party-miami-miami-3?adjust_creative=xaZ1Joo3-9aWJr5cVO0Jdg&utm_campaign=yelp_api_v3&utm_medium=api_v3_business_search&utm_source=xaZ1Joo3-9aWJr5cVO0Jdg", "review_count": 34, "categories": [{"alias": "partybikerentals", "title": "Party Bike Rentals"}, {"alias": "foodtours", "title": "Food Tours"}, {"alias": "beertours", "title": "Beer Tours"}], "rating": 4.5, "coordinates": {"latitude": 25.80322, "longitude": -80.19196}, "transactions": [], "location": {"address1": "148 NE 28th St", "address2": null, "address3": "", "city": "Miami", "zip_code": "33127", "country": "US", "state": "FL", "display_address": ["148 NE 28th St", "Miami, FL 33127"]}, "phone": "+13056766710", "display_phone": "(305) 676-6710", "distance": 4307.283231278621}, {"id": "mlEKoLz-Lp5Cm8OYLcXXww", "alias": "blue-fin-charters-miami-beach-2", "name": "Blue Fin Charters", "image_url": "https://s3-media2.fl.yelpcdn.com/bphoto/zEnahc685QLQrF5AjN6RRw/o.jpg", "is_closed": false, "url": "https://www.yelp.com/biz/blue-fin-charters-miami-beach-2?adjust_creative=xaZ1Joo3-9aWJr5cVO0Jdg&utm_campaign=yelp_api_v3&utm_medium=api_v3_business_search&utm_source=xaZ1Joo3-9aWJr5cVO0Jdg", "review_count": 6, "categories": [{"alias": "boating", "title": "Boating"}, {"alias": "fishing", "title": "Fishing"}, {"alias": "boatcharters", "title": "Boat Charters"}], "rating": 5.0, "coordinates": {"latitude": 25.78628, "longitude": -80.144282}, "transactions": [], "location": {"address1": "1500 Bay Rd", "address2": "", "address3": "", "city": "Miami Beach", "zip_code": "33139", "country": "US", "state": "FL", "display_address": ["1500 Bay Rd", "Miami Beach, FL 33139"]}, "phone": "+17723410866", "display_phone": "(772) 341-0866", "distance": 8427.24127639918}, {"id": "lUdLmjRGtCQhk9ENXR_raQ", "alias": "royal-caribbean-liberty-of-the-seas-miami", "name": "Royal Caribbean - Liberty of the Seas", "image_url": "https://s3-media1.fl.yelpcdn.com/bphoto/mqagmprN90RiRKcysJJqxQ/o.jpg", "is_closed": false, "url": "https://www.yelp.com/biz/royal-caribbean-liberty-of-the-seas-miami?adjust_creative=xaZ1Joo3-9aWJr5cVO0Jdg&utm_campaign=yelp_api_v3&utm_medium=api_v3_business_search&utm_source=xaZ1Joo3-9aWJr5cVO0Jdg", "review_count": 38, "categories": [{"alias": "hotelstravel", "title": "Hotels & Travel"}], "rating": 3.5, "coordinates": {"latitude": 25.775256775737, "longitude": -80.1782764371064}, "transactions": [], "location": {"address1": "1050 Caribbean Way", "address2": "", "address3": "Royal Caribbean International", "city": "Miami", "zip_code": "33132", "country": "US", "state": "FL", "display_address": ["1050 Caribbean Way", "Royal Caribbean International", "Miami, FL 33132"]}, "phone": "+18003989819", "display_phone": "(800) 398-9819", "distance": 5078.632302378735}, {"id": "-bv6Thob2m1h9dZW0KYlWw", "alias": "sea-miami-yacht-charters-miami-beach", "name": "Sea Miami Yacht Charters", "image_url": "https://s3-media3.fl.yelpcdn.com/bphoto/GdiRb5v464eYl5Ygh_AG5w/o.jpg", "is_closed": false, "url": "https://www.yelp.com/biz/sea-miami-yacht-charters-miami-beach?adjust_creative=xaZ1Joo3-9aWJr5cVO0Jdg&utm_campaign=yelp_api_v3&utm_medium=api_v3_business_search&utm_source=xaZ1Joo3-9aWJr5cVO0Jdg", "review_count": 1, "categories": [{"alias": "boating", "title": "Boating"}, {"alias": "boatcharters", "title": "Boat Charters"}], "rating": 5.0, "coordinates": {"latitude": 25.771641, "longitude": -80.139561}, "transactions": [], "location": {"address1": "300 Alton Rd", "address2": null, "address3": "", "city": "Miami Beach", "zip_code": "33139", "country": "US", "state": "FL", "display_address": ["300 Alton Rd", "Miami Beach, FL 33139"]}, "phone": "+12605306668", "display_phone": "(260) 530-6668", "distance": 8989.73869545333}, {"id": "K1lW5qB2m0S8pTnwPIOSiA", "alias": "captain-alain-charters-miami-beach-5", "name": "Captain Alain Charters", "image_url": "https://s3-media2.fl.yelpcdn.com/bphoto/HHKXUyoK6zz_REH2HSvouA/o.jpg", "is_closed": false, "url": "https://www.yelp.com/biz/captain-alain-charters-miami-beach-5?adjust_creative=xaZ1Joo3-9aWJr5cVO0Jdg&utm_campaign=yelp_api_v3&utm_medium=api_v3_business_search&utm_source=xaZ1Joo3-9aWJr5cVO0Jdg", "review_count": 53, "categories": [{"alias": "boatcharters", "title": "Boat Charters"}, {"alias": "boattours", "title": "Boat Tours"}], "rating": 5.0, "coordinates": {"latitude": 25.8500179, "longitude": -80.160171}, "transactions": [], "location": {"address1": "7910 West Dr", "address2": null, "address3": null, "city": "Miami Beach", "zip_code": "33141", "country": "US", "state": "FL", "display_address": ["7910 West Dr", "Miami Beach, FL 33141"]}, "phone": "+17865999133", "display_phone": "(786) 599-9133", "distance": 10142.094472713334}, {"id": "sd55MSQcjfwCDPudJWFwcw", "alias": "miami-royal-vacation-miami", "name": "Miami Royal Vacation", "image_url": "https://s3-media1.fl.yelpcdn.com/bphoto/fXDZkri2Ho8cOtGv5yvw3Q/o.jpg", "is_closed": false, "url": "https://www.yelp.com/biz/miami-royal-vacation-miami?adjust_creative=xaZ1Joo3-9aWJr5cVO0Jdg&utm_campaign=yelp_api_v3&utm_medium=api_v3_business_search&utm_source=xaZ1Joo3-9aWJr5cVO0Jdg", "review_count": 1, "categories": [{"alias": "boatcharters", "title": "Boat Charters"}, {"alias": "carrental", "title": "Car Rental"}], "rating": 5.0, "coordinates": {"latitude": 25.8175607, "longitude": -80.1886835}, "transactions": [], "location": {"address1": "4500 Biscayne Blvd", "address2": "PH-N", "address3": "", "city": "Miami", "zip_code": "33137", "country": "US", "state": "FL", "display_address": ["4500 Biscayne Blvd", "PH-N", "Miami, FL 33137"]}, "phone": "+17867173828", "display_phone": "(786) 717-3828", "distance": 5561.30116795857}, {"id": "fJ-lkVND82tbtKosCS3qFQ", "alias": "carnival-ecstasy-cruise-ship-miami", "name": "Carnival Ecstasy Cruise Ship", "image_url": "https://s3-media4.fl.yelpcdn.com/bphoto/MiUud40MplWbAKRtXS93pw/o.jpg", "is_closed": false, "url": "https://www.yelp.com/biz/carnival-ecstasy-cruise-ship-miami?adjust_creative=xaZ1Joo3-9aWJr5cVO0Jdg&utm_campaign=yelp_api_v3&utm_medium=api_v3_business_search&utm_source=xaZ1Joo3-9aWJr5cVO0Jdg", "review_count": 46, "categories": [{"alias": "boattours", "title": "Boat Tours"}], "rating": 3.0, "coordinates": {"latitude": 25.78141, "longitude": -80.19064}, "transactions": [], "location": {"address1": "", "address2": "", "address3": "", "city": "Miami", "zip_code": "33132", "country": "US", "state": "FL", "display_address": ["Miami, FL 33132"]}, "phone": "+18007647419", "display_phone": "(800) 764-7419", "distance": 6203.905859940395}, {"id": "zdizrCU9NPdgUuUdi2Bh4w", "alias": "billie-swamp-safari-clewiston", "name": "Billie Swamp Safari", "image_url": "https://s3-media2.fl.yelpcdn.com/bphoto/YqALa5p4IKuFopxvG1QO1A/o.jpg", "is_closed": false, "url": "https://www.yelp.com/biz/billie-swamp-safari-clewiston?adjust_creative=xaZ1Joo3-9aWJr5cVO0Jdg&utm_campaign=yelp_api_v3&utm_medium=api_v3_business_search&utm_source=xaZ1Joo3-9aWJr5cVO0Jdg", "review_count": 104, "categories": [{"alias": "zoos", "title": "Zoos"}, {"alias": "boattours", "title": "Boat Tours"}], "rating": 4.0, "coordinates": {"latitude": 26.330038, "longitude": -81.054536}, "transactions": [], "location": {"address1": "30000 Gator Tail Trl", "address2": "", "address3": "Big Cypress Seminole Reservation", "city": "Clewiston", "zip_code": "33440", "country": "US", "state": "FL", "display_address": ["30000 Gator Tail Trl", "Big Cypress Seminole Reservation", "Clewiston, FL 33440"]}, "phone": "+18639836101", "display_phone": "(863) 983-6101", "distance": 102554.3148175398}, {"id": "l4XqjcTMv_QqetHRVQo7mQ", "alias": "azamara-club-cruises-miami-2", "name": "Azamara Club Cruises", "image_url": "https://s3-media3.fl.yelpcdn.com/bphoto/dSstqyQFu8vJ1yn1zm_olw/o.jpg", "is_closed": false, "url": "https://www.yelp.com/biz/azamara-club-cruises-miami-2?adjust_creative=xaZ1Joo3-9aWJr5cVO0Jdg&utm_campaign=yelp_api_v3&utm_medium=api_v3_business_search&utm_source=xaZ1Joo3-9aWJr5cVO0Jdg", "review_count": 18, "categories": [{"alias": "tours", "title": "Tours"}], "rating": 2.5, "coordinates": {"latitude": 25.7752657, "longitude": -80.1777309}, "transactions": [], "location": {"address1": "1050 Caribbean Way", "address2": null, "address3": "", "city": "Miami", "zip_code": "33132", "country": "US", "state": "FL", "display_address": ["1050 Caribbean Way", "Miami, FL 33132"]}, "phone": "+18779999553", "display_phone": "(877) 999-9553", "distance": 5075.9290854936735}, {"id": "5mfaY7km8dYVj6JI-nQD9A", "alias": "royal-caribbean-cruise-line-miami-2", "name": "Royal Caribbean cruise line", "image_url": "https://s3-media2.fl.yelpcdn.com/bphoto/3DW0laJe7E9dWpSA2OJ4CA/o.jpg", "is_closed": false, "url": "https://www.yelp.com/biz/royal-caribbean-cruise-line-miami-2?adjust_creative=xaZ1Joo3-9aWJr5cVO0Jdg&utm_campaign=yelp_api_v3&utm_medium=api_v3_business_search&utm_source=xaZ1Joo3-9aWJr5cVO0Jdg", "review_count": 18, "categories": [{"alias": "tours", "title": "Tours"}], "rating": 2.0, "coordinates": {"latitude": 25.7762073340556, "longitude": -80.1699493825436}, "transactions": [], "location": {"address1": "1435 N Cruise Blvd", "address2": "Port of Miami", "address3": null, "city": "Miami", "zip_code": "33132", "country": "US", "state": "FL", "display_address": ["1435 N Cruise Blvd", "Port of Miami", "Miami, FL 33132"]}, "phone": "", "display_phone": "", "distance": 5889.625356507426}, {"id": "zFqGX8nAwoEJ276IWVsPBw", "alias": "prime-luxury-rentals-miami-4", "name": "Prime Luxury Rentals", "image_url": "https://s3-media3.fl.yelpcdn.com/bphoto/Q0V008x7XX91cwImY5sUjg/o.jpg", "is_closed": false, "url": "https://www.yelp.com/biz/prime-luxury-rentals-miami-4?adjust_creative=xaZ1Joo3-9aWJr5cVO0Jdg&utm_campaign=yelp_api_v3&utm_medium=api_v3_business_search&utm_source=xaZ1Joo3-9aWJr5cVO0Jdg", "review_count": 51, "categories": [{"alias": "boatcharters", "title": "Boat Charters"}, {"alias": "carrental", "title": "Car Rental"}, {"alias": "boating", "title": "Boating"}], "rating": 4.0, "coordinates": {"latitude": 25.783161, "longitude": -80.189665}, "transactions": [], "location": {"address1": "990 Biscayne Blvd", "address2": "Ste 501", "address3": "", "city": "Miami", "zip_code": "33132", "country": "US", "state": "FL", "display_address": ["990 Biscayne Blvd", "Ste 501", "Miami, FL 33132"]}, "phone": "+13058923573", "display_phone": "(305) 892-3573", "distance": 3873.7302570410156}, {"id": "2ugBMDfJ13wr10maSr3Faw", "alias": "miami-double-decker-miami-beach", "name": "Miami Double Decker", "image_url": "https://s3-media3.fl.yelpcdn.com/bphoto/hT9lNp4dsptoXTf7q3C11w/o.jpg", "is_closed": false, "url": "https://www.yelp.com/biz/miami-double-decker-miami-beach?adjust_creative=xaZ1Joo3-9aWJr5cVO0Jdg&utm_campaign=yelp_api_v3&utm_medium=api_v3_business_search&utm_source=xaZ1Joo3-9aWJr5cVO0Jdg", "review_count": 109, "categories": [{"alias": "tours", "title": "Tours"}], "rating": 2.0, "coordinates": {"latitude": 25.7910195778965, "longitude": -80.1318028441803}, "transactions": [], "location": {"address1": "", "address2": null, "address3": null, "city": "Miami Beach", "zip_code": "33139", "country": "US", "state": "FL", "display_address": ["Miami Beach, FL 33139"]}, "phone": "+13058659999", "display_phone": "(305) 865-9999", "distance": 9712.098754793566}, {"id": "iYNXAdcQ9ttgD3VntSpHjQ", "alias": "miami-tours-miami-beach-2", "name": "Miami Tours", "image_url": "https://s3-media4.fl.yelpcdn.com/bphoto/hrKoSjs5-6yYwuLiYR9MyQ/o.jpg", "is_closed": false, "url": "https://www.yelp.com/biz/miami-tours-miami-beach-2?adjust_creative=xaZ1Joo3-9aWJr5cVO0Jdg&utm_campaign=yelp_api_v3&utm_medium=api_v3_business_search&utm_source=xaZ1Joo3-9aWJr5cVO0Jdg", "review_count": 138, "categories": [{"alias": "bustours", "title": "Bus Tours"}], "rating": 2.0, "coordinates": {"latitude": 25.790894568159985, "longitude": -80.13099777366486}, "transactions": [], "location": {"address1": "305 Lincoln Rd", "address2": "", "address3": "", "city": "Miami Beach", "zip_code": "33139", "country": "US", "state": "FL", "display_address": ["305 Lincoln Rd", "Miami Beach, FL 33139"]}, "phone": "+13052220111", "display_phone": "(305) 222-0111", "distance": 9791.003774515275}, {"id": "9jbmWMrxLcF33sazvFo0_w", "alias": "margaritaville-adventures-coral-gables", "name": "Margaritaville Adventures", "image_url": "https://s3-media4.fl.yelpcdn.com/bphoto/WOxMfT82A5SyQus8NQl7Jw/o.jpg", "is_closed": false, "url": "https://www.yelp.com/biz/margaritaville-adventures-coral-gables?adjust_creative=xaZ1Joo3-9aWJr5cVO0Jdg&utm_campaign=yelp_api_v3&utm_medium=api_v3_business_search&utm_source=xaZ1Joo3-9aWJr5cVO0Jdg", "review_count": 1, "categories": [{"alias": "tours", "title": "Tours"}], "rating": 5.0, "coordinates": {"latitude": 25.741314, "longitude": -80.277452}, "transactions": [], "location": {"address1": "1200 Anastasia Ave", "address2": "Ste 216", "address3": "", "city": "Coral Gables", "zip_code": "33134", "country": "US", "state": "FL", "display_address": ["1200 Anastasia Ave", "Ste 216", "Coral Gables, FL 33134"]}, "phone": "+18005989853", "display_phone": "(800) 598-9853", "distance": 6723.054663809902}, {"id": "gYLvlRw2YdEEWVx6tQe7bQ", "alias": "royal-caribbean-freedom-of-the-seas-miami", "name": "Royal Caribbean, Freedom of the Seas", "image_url": "https://s3-media1.fl.yelpcdn.com/bphoto/biudKIxFYOAGhD8kVAK2GA/o.jpg", "is_closed": false, "url": "https://www.yelp.com/biz/royal-caribbean-freedom-of-the-seas-miami?adjust_creative=xaZ1Joo3-9aWJr5cVO0Jdg&utm_campaign=yelp_api_v3&utm_medium=api_v3_business_search&utm_source=xaZ1Joo3-9aWJr5cVO0Jdg", "review_count": 56, "categories": [{"alias": "travelservices", "title": "Travel Services"}], "rating": 3.5, "coordinates": {"latitude": 25.7748107910156, "longitude": -80.1977310180664}, "transactions": [], "location": {"address1": "Crown & Anchor Society", "address2": "", "address3": "", "city": "Miami", "zip_code": "33102", "country": "US", "state": "FL", "display_address": ["Crown & Anchor Society", "Miami, FL 33102"]}, "phone": "+18005269723", "display_phone": "(800) 526-9723", "distance": 8402.14237022037}, {"id": "-yMyqjwjc7bGoPrgrV0fpg", "alias": "celebrity-cruises-miami", "name": "Celebrity Cruises", "image_url": "https://s3-media2.fl.yelpcdn.com/bphoto/mgSmwvJpHMD-aH4U2KoHjg/o.jpg", "is_closed": false, "url": "https://www.yelp.com/biz/celebrity-cruises-miami?adjust_creative=xaZ1Joo3-9aWJr5cVO0Jdg&utm_campaign=yelp_api_v3&utm_medium=api_v3_business_search&utm_source=xaZ1Joo3-9aWJr5cVO0Jdg", "review_count": 276, "categories": [{"alias": "travelservices", "title": "Travel Services"}], "rating": 2.5, "coordinates": {"latitude": 25.7759514, "longitude": -80.1773758}, "transactions": [], "location": {"address1": "1080 Caribbean Way", "address2": "", "address3": "", "city": "Miami", "zip_code": "33132", "country": "US", "state": "FL", "display_address": ["1080 Caribbean Way", "Miami, FL 33132"]}, "phone": "+13052626677", "display_phone": "(305) 262-6677", "distance": 5055.038969267757}, {"id": "CMdjIxBBmNpfMSinbk2a4w", "alias": "hampton-inn-and-suites-by-hilton-miami-airport-south-blue-lagoon-miami-3", "name": "Hampton Inn & Suites by Hilton Miami Airport South - Blue Lagoon", "image_url": "https://s3-media2.fl.yelpcdn.com/bphoto/2YoONSB60pmpN8NJEj_QCw/o.jpg", "is_closed": false, "url": "https://www.yelp.com/biz/hampton-inn-and-suites-by-hilton-miami-airport-south-blue-lagoon-miami-3?adjust_creative=xaZ1Joo3-9aWJr5cVO0Jdg&utm_campaign=yelp_api_v3&utm_medium=api_v3_business_search&utm_source=xaZ1Joo3-9aWJr5cVO0Jdg", "review_count": 86, "categories": [{"alias": "hotels", "title": "Hotels"}], "rating": 3.5, "coordinates": {"latitude": 25.779061016768495, "longitude": -80.2882027116394}, "transactions": [], "price": "$$", "location": {"address1": "777 NW 57th Ave", "address2": "", "address3": "", "city": "Miami", "zip_code": "33126", "country": "US", "state": "FL", "display_address": ["777 NW 57th Ave", "Miami, FL 33126"]}, "phone": "+13052625400", "display_phone": "(305) 262-5400", "distance": 6005.594720807222}, {"id": "789i84c9cHuddWQM2y7rxQ", "alias": "brickell-boat-charters-miami", "name": "Brickell Boat Charters", "image_url": "https://s3-media2.fl.yelpcdn.com/bphoto/T-FEGETjuM7lgrx2XPZnNA/o.jpg", "is_closed": false, "url": "https://www.yelp.com/biz/brickell-boat-charters-miami?adjust_creative=xaZ1Joo3-9aWJr5cVO0Jdg&utm_campaign=yelp_api_v3&utm_medium=api_v3_business_search&utm_source=xaZ1Joo3-9aWJr5cVO0Jdg", "review_count": 8, "categories": [{"alias": "boatcharters", "title": "Boat Charters"}], "rating": 2.5, "coordinates": {"latitude": 25.76528, "longitude": -80.1847167}, "transactions": [], "location": {"address1": null, "address2": null, "address3": "", "city": "Miami", "zip_code": "33131", "country": "US", "state": "FL", "display_address": ["Miami, FL 33131"]}, "phone": "+19136029952", "display_phone": "(913) 602-9952", "distance": 4772.048293586297}, {"id": "8v1pod8ng6yLzEBII2WhFw", "alias": "norwegian-escape-miami-5", "name": "Norwegian Escape", "image_url": "https://s3-media4.fl.yelpcdn.com/bphoto/eXpoR7dA-iHAul_LRA4AEg/o.jpg", "is_closed": false, "url": "https://www.yelp.com/biz/norwegian-escape-miami-5?adjust_creative=xaZ1Joo3-9aWJr5cVO0Jdg&utm_campaign=yelp_api_v3&utm_medium=api_v3_business_search&utm_source=xaZ1Joo3-9aWJr5cVO0Jdg", "review_count": 72, "categories": [{"alias": "travelservices", "title": "Travel Services"}, {"alias": "tours", "title": "Tours"}], "rating": 4.0, "coordinates": {"latitude": 25.78119, "longitude": -80.19068}, "transactions": [], "location": {"address1": "", "address2": "", "address3": "", "city": "Miami", "zip_code": "33132", "country": "US", "state": "FL", "display_address": ["Miami, FL 33132"]}, "phone": "+18662347350", "display_phone": "(866) 234-7350", "distance": 6203.905859940395}, {"id": "wZ9aEU78bs1_OGBDMfoS_Q", "alias": "holidays-in-motion-miami", "name": "Holidays In Motion", "image_url": "https://s3-media1.fl.yelpcdn.com/bphoto/89xr6bMB4rw-it8IYQlw7g/o.jpg", "is_closed": false, "url": "https://www.yelp.com/biz/holidays-in-motion-miami?adjust_creative=xaZ1Joo3-9aWJr5cVO0Jdg&utm_campaign=yelp_api_v3&utm_medium=api_v3_business_search&utm_source=xaZ1Joo3-9aWJr5cVO0Jdg", "review_count": 9, "categories": [{"alias": "travelagents", "title": "Travel Agents"}], "rating": 4.5, "coordinates": {"latitude": 25.7499001, "longitude": -80.243968}, "transactions": [], "location": {"address1": "3134 Coral Way", "address2": null, "address3": "", "city": "Miami", "zip_code": "33145", "country": "US", "state": "FL", "display_address": ["3134 Coral Way", "Miami, FL 33145"]}, "phone": "+18008711777", "display_phone": "(800) 871-1777", "distance": 3952.5225955128935}, {"id": "f7iSETMmjtoECNfoqGy07Q", "alias": "celebrity-cruise-lines-miami", "name": "Celebrity Cruise Lines", "image_url": "https://s3-media3.fl.yelpcdn.com/bphoto/CH5oyE8zCDzULf7yVHcFGw/o.jpg", "is_closed": false, "url": "https://www.yelp.com/biz/celebrity-cruise-lines-miami?adjust_creative=xaZ1Joo3-9aWJr5cVO0Jdg&utm_campaign=yelp_api_v3&utm_medium=api_v3_business_search&utm_source=xaZ1Joo3-9aWJr5cVO0Jdg", "review_count": 59, "categories": [{"alias": "travelservices", "title": "Travel Services"}], "rating": 2.5, "coordinates": {"latitude": 25.776406591185, "longitude": -80.17794026398134}, "transactions": [], "location": {"address1": "1050 Caribbean Way", "address2": "", "address3": "", "city": "Miami", "zip_code": "94103", "country": "US", "state": "FL", "display_address": ["1050 Caribbean Way", "Miami, FL 94103"]}, "phone": "+18006472251", "display_phone": "(800) 647-2251", "distance": 5093.138193838119}, {"id": "B2dlqfAQIVzX8H9QctoxMQ", "alias": "carnival-cruise-lines-miami-4", "name": "Carnival Cruise Lines", "image_url": "https://s3-media2.fl.yelpcdn.com/bphoto/IwrEPWIXjaOrSoRoTABNTg/o.jpg", "is_closed": false, "url": "https://www.yelp.com/biz/carnival-cruise-lines-miami-4?adjust_creative=xaZ1Joo3-9aWJr5cVO0Jdg&utm_campaign=yelp_api_v3&utm_medium=api_v3_business_search&utm_source=xaZ1Joo3-9aWJr5cVO0Jdg", "review_count": 877, "categories": [{"alias": "travelservices", "title": "Travel Services"}], "rating": 2.0, "coordinates": {"latitude": 25.8076373657855, "longitude": -80.337206074763}, "transactions": [], "location": {"address1": "3655 NW 87th Ave", "address2": "", "address3": null, "city": "Miami", "zip_code": "33178", "country": "US", "state": "FL", "display_address": ["3655 NW 87th Ave", "Miami, FL 33178"]}, "phone": "+18007647419", "display_phone": "(800) 764-7419", "distance": 20204.72073163885}, {"id": "-jZnCMibPIXC3rY1CpSJVw", "alias": "carnival-victory-downtown-miami", "name": "Carnival Victory", "image_url": "https://s3-media3.fl.yelpcdn.com/bphoto/wxuyeGb6s4jbyuHEks4Z3Q/o.jpg", "is_closed": false, "url": "https://www.yelp.com/biz/carnival-victory-downtown-miami?adjust_creative=xaZ1Joo3-9aWJr5cVO0Jdg&utm_campaign=yelp_api_v3&utm_medium=api_v3_business_search&utm_source=xaZ1Joo3-9aWJr5cVO0Jdg", "review_count": 148, "categories": [{"alias": "boatcharters", "title": "Boat Charters"}], "rating": 3.0, "coordinates": {"latitude": 25.7766517566255, "longitude": -80.1701229106927}, "transactions": [], "location": {"address1": "Panama Way", "address2": "", "address3": "Port of Miami", "city": "Downtown Miami", "zip_code": "33132", "country": "US", "state": "FL", "display_address": ["Panama Way", "Port of Miami", "Downtown Miami, FL 33132"]}, "phone": "+18007647419", "display_phone": "(800) 764-7419", "distance": 5866.640281481644}, {"id": "pjgVbc_CjeU8t8nb1_AlDQ", "alias": "gray-line-miami-miami", "name": "Gray Line Miami", "image_url": "https://s3-media1.fl.yelpcdn.com/bphoto/Z1pAbYE6L6WsnNrXFT0WkA/o.jpg", "is_closed": false, "url": "https://www.yelp.com/biz/gray-line-miami-miami?adjust_creative=xaZ1Joo3-9aWJr5cVO0Jdg&utm_campaign=yelp_api_v3&utm_medium=api_v3_business_search&utm_source=xaZ1Joo3-9aWJr5cVO0Jdg", "review_count": 25, "categories": [{"alias": "tours", "title": "Tours"}], "rating": 1.5, "coordinates": {"latitude": 25.77447, "longitude": -80.19054}, "transactions": [], "location": {"address1": "199 E Flagler St", "address2": "Ste 1120", "address3": "", "city": "Miami", "zip_code": "33131", "country": "US", "state": "FL", "display_address": ["199 E Flagler St", "Ste 1120", "Miami, FL 33131"]}, "phone": "+18776431258", "display_phone": "(877) 643-1258", "distance": 3886.8545389025994}, {"id": "a95aeKtWrtxgArm0c9PWSQ", "alias": "coral-reef-yacht-club-miami", "name": "Coral Reef Yacht Club", "image_url": "https://s3-media1.fl.yelpcdn.com/bphoto/e98Gl60a1ePprJ2r4TGtAA/o.jpg", "is_closed": false, "url": "https://www.yelp.com/biz/coral-reef-yacht-club-miami?adjust_creative=xaZ1Joo3-9aWJr5cVO0Jdg&utm_campaign=yelp_api_v3&utm_medium=api_v3_business_search&utm_source=xaZ1Joo3-9aWJr5cVO0Jdg", "review_count": 15, "categories": [{"alias": "boatcharters", "title": "Boat Charters"}], "rating": 4.5, "coordinates": {"latitude": 25.732629180621785, "longitude": -80.23109637985995}, "transactions": [], "location": {"address1": "2484 S Bayshore Dr", "address2": "", "address3": "", "city": "Miami", "zip_code": "33133", "country": "US", "state": "FL", "display_address": ["2484 S Bayshore Dr", "Miami, FL 33133"]}, "phone": "+13058581733", "display_phone": "(305) 858-1733", "distance": 5557.095553739404}, {"id": "fXxDPGy3vMqq7c3Nko1g4g", "alias": "miami-like-a-boss-miami-beach", "name": "Miami Like A Boss", "image_url": "https://s3-media1.fl.yelpcdn.com/bphoto/ie1MCSvIJppFf8zauG5HLQ/o.jpg", "is_closed": false, "url": "https://www.yelp.com/biz/miami-like-a-boss-miami-beach?adjust_creative=xaZ1Joo3-9aWJr5cVO0Jdg&utm_campaign=yelp_api_v3&utm_medium=api_v3_business_search&utm_source=xaZ1Joo3-9aWJr5cVO0Jdg", "review_count": 5, "categories": [{"alias": "boatcharters", "title": "Boat Charters"}], "rating": 4.0, "coordinates": {"latitude": 25.77163, "longitude": -80.139593}, "transactions": [], "location": {"address1": "300 Alton Rd", "address2": "", "address3": "", "city": "Miami Beach", "zip_code": "33139", "country": "US", "state": "FL", "display_address": ["300 Alton Rd", "Miami Beach, FL 33139"]}, "phone": "+13057020255", "display_phone": "(305) 702-0255", "distance": 8989.73869545333}, {"id": "tarubfcpBwirV3yvNji4GA", "alias": "deering-estate-palmetto-bay", "name": "Deering Estate", "image_url": "https://s3-media3.fl.yelpcdn.com/bphoto/rUOpVqiDmYVcLWJ4bbznIQ/o.jpg", "is_closed": false, "url": "https://www.yelp.com/biz/deering-estate-palmetto-bay?adjust_creative=xaZ1Joo3-9aWJr5cVO0Jdg&utm_campaign=yelp_api_v3&utm_medium=api_v3_business_search&utm_source=xaZ1Joo3-9aWJr5cVO0Jdg", "review_count": 98, "categories": [{"alias": "museums", "title": "Museums"}, {"alias": "historicaltours", "title": "Historical Tours"}, {"alias": "landmarks", "title": "Landmarks & Historical Buildings"}], "rating": 4.5, "coordinates": {"latitude": 25.6155325, "longitude": -80.3082559}, "transactions": [], "location": {"address1": "16701 SW 72nd Ave", "address2": "", "address3": "", "city": "Palmetto Bay", "zip_code": "33157", "country": "US", "state": "FL", "display_address": ["16701 SW 72nd Ave", "Palmetto Bay, FL 33157"]}, "phone": "+13052351668", "display_phone": "(305) 235-1668", "distance": 20178.180815767708}, {"id": "qfdXkrsGoSRUjiCvfr4ZPw", "alias": "intercontinental-miami-miami", "name": "InterContinental Miami", "image_url": "https://s3-media1.fl.yelpcdn.com/bphoto/wbLcBNNRnIcUH2EbagmG3Q/o.jpg", "is_closed": false, "url": "https://www.yelp.com/biz/intercontinental-miami-miami?adjust_creative=xaZ1Joo3-9aWJr5cVO0Jdg&utm_campaign=yelp_api_v3&utm_medium=api_v3_business_search&utm_source=xaZ1Joo3-9aWJr5cVO0Jdg", "review_count": 502, "categories": [{"alias": "hotels", "title": "Hotels"}], "rating": 3.5, "coordinates": {"latitude": 25.7723799, "longitude": -80.18532}, "transactions": [], "price": "$$$", "location": {"address1": "100 Chopin Plz", "address2": "", "address3": "", "city": "Miami", "zip_code": "33131", "country": "US", "state": "FL", "display_address": ["100 Chopin Plz", "Miami, FL 33131"]}, "phone": "+13055771000", "display_phone": "(305) 577-1000", "distance": 4412.79058712314}, {"id": "rWlTkZTo8TXVY5YSoMdZmw", "alias": "kelley-fishing-fleet-miami", "name": "Kelley Fishing Fleet", "image_url": "https://s3-media4.fl.yelpcdn.com/bphoto/uY14AI88SxG8qMeWJJ5p-Q/o.jpg", "is_closed": false, "url": "https://www.yelp.com/biz/kelley-fishing-fleet-miami?adjust_creative=xaZ1Joo3-9aWJr5cVO0Jdg&utm_campaign=yelp_api_v3&utm_medium=api_v3_business_search&utm_source=xaZ1Joo3-9aWJr5cVO0Jdg", "review_count": 63, "categories": [{"alias": "fishing", "title": "Fishing"}, {"alias": "boatcharters", "title": "Boat Charters"}], "rating": 3.5, "coordinates": {"latitude": 25.9116846, "longitude": -80.1228649}, "transactions": [], "location": {"address1": "10800 Collins Ave", "address2": "", "address3": "", "city": "Miami", "zip_code": "33154", "country": "US", "state": "FL", "display_address": ["10800 Collins Ave", "Miami, FL 33154"]}, "phone": "+13059453801", "display_phone": "(305) 945-3801", "distance": 16422.934791483563}, {"id": "DSyXCSf7K8Z9d4X8QnrEbg", "alias": "msc-divina-miami", "name": "MSC Divina", "image_url": "https://s3-media2.fl.yelpcdn.com/bphoto/qzlco7-V2O6Mk4PolcuQtg/o.jpg", "is_closed": false, "url": "https://www.yelp.com/biz/msc-divina-miami?adjust_creative=xaZ1Joo3-9aWJr5cVO0Jdg&utm_campaign=yelp_api_v3&utm_medium=api_v3_business_search&utm_source=xaZ1Joo3-9aWJr5cVO0Jdg", "review_count": 123, "categories": [{"alias": "hotelstravel", "title": "Hotels & Travel"}], "rating": 2.5, "coordinates": {"latitude": 25.7738991098628, "longitude": -80.166862777106}, "transactions": [], "location": {"address1": "1920 Africa Way", "address2": "", "address3": "", "city": "Miami", "zip_code": "33132", "country": "US", "state": "FL", "display_address": ["1920 Africa Way", "Miami, FL 33132"]}, "phone": "", "display_phone": "", "distance": 6167.350095775129}, {"id": "WrQJNE8qI3R4GfoExN6ozg", "alias": "miami-airport-marriott-miami-3", "name": "Miami Airport Marriott", "image_url": "https://s3-media2.fl.yelpcdn.com/bphoto/Is7TdMK-00AwhXn_TDKY6Q/o.jpg", "is_closed": false, "url": "https://www.yelp.com/biz/miami-airport-marriott-miami-3?adjust_creative=xaZ1Joo3-9aWJr5cVO0Jdg&utm_campaign=yelp_api_v3&utm_medium=api_v3_business_search&utm_source=xaZ1Joo3-9aWJr5cVO0Jdg", "review_count": 151, "categories": [{"alias": "hotels", "title": "Hotels"}, {"alias": "venues", "title": "Venues & Event Spaces"}], "rating": 3.0, "coordinates": {"latitude": 25.784021, "longitude": -80.262897}, "transactions": [], "price": "$$", "location": {"address1": "1201 NW Le Jeune Rd", "address2": "Bldg A", "address3": "", "city": "Miami", "zip_code": "33126", "country": "US", "state": "FL", "display_address": ["1201 NW Le Jeune Rd", "Bldg A", "Miami, FL 33126"]}, "phone": "+13056495000", "display_phone": "(305) 649-5000", "distance": 3463.133083701758}, {"id": "KLSeuq0DRe3O0-gK7iI8zA", "alias": "norwegian-sky-miami", "name": "Norwegian Sky", "image_url": "https://s3-media2.fl.yelpcdn.com/bphoto/bC7fczFZBZZVEbtf7s2vjw/o.jpg", "is_closed": false, "url": "https://www.yelp.com/biz/norwegian-sky-miami?adjust_creative=xaZ1Joo3-9aWJr5cVO0Jdg&utm_campaign=yelp_api_v3&utm_medium=api_v3_business_search&utm_source=xaZ1Joo3-9aWJr5cVO0Jdg", "review_count": 53, "categories": [{"alias": "travelservices", "title": "Travel Services"}], "rating": 3.0, "coordinates": {"latitude": 25.7771312228917, "longitude": -80.1721110798933}, "transactions": [], "location": {"address1": "7665 Corporate Ctr Dr", "address2": "", "address3": "", "city": "Miami", "zip_code": "33132", "country": "US", "state": "FL", "display_address": ["7665 Corporate Ctr Dr", "Miami, FL 33132"]}, "phone": "+18662347350", "display_phone": "(866) 234-7350", "distance": 5662.932243688441}, {"id": "t3N4vmTZepCfCLdgJGuYPw", "alias": "residence-inn-by-marriott-miami-airport-miami-2", "name": "Residence Inn by Marriott Miami Airport", "image_url": "https://s3-media1.fl.yelpcdn.com/bphoto/G4hZ4Bn_IAriUU2G5vAfdA/o.jpg", "is_closed": false, "url": "https://www.yelp.com/biz/residence-inn-by-marriott-miami-airport-miami-2?adjust_creative=xaZ1Joo3-9aWJr5cVO0Jdg&utm_campaign=yelp_api_v3&utm_medium=api_v3_business_search&utm_source=xaZ1Joo3-9aWJr5cVO0Jdg", "review_count": 38, "categories": [{"alias": "hotels", "title": "Hotels"}, {"alias": "venues", "title": "Venues & Event Spaces"}], "rating": 3.5, "coordinates": {"latitude": 25.78427, "longitude": -80.26239}, "transactions": [], "price": "$$", "location": {"address1": "1201 NW 42nd Ave", "address2": "", "address3": "", "city": "Miami", "zip_code": "33126", "country": "US", "state": "FL", "display_address": ["1201 NW 42nd Ave", "Miami, FL 33126"]}, "phone": "+13056428570", "display_phone": "(305) 642-8570", "distance": 3417.1731803686093}, {"id": "9gKYO_Ko5ItcKXfszaz-BQ", "alias": "norwegian-cruise-line-sky-miami", "name": "Norwegian Cruise Line - Sky", "image_url": "https://s3-media3.fl.yelpcdn.com/bphoto/i7DhoGJ3niiZbsiZNqvAGQ/o.jpg", "is_closed": false, "url": "https://www.yelp.com/biz/norwegian-cruise-line-sky-miami?adjust_creative=xaZ1Joo3-9aWJr5cVO0Jdg&utm_campaign=yelp_api_v3&utm_medium=api_v3_business_search&utm_source=xaZ1Joo3-9aWJr5cVO0Jdg", "review_count": 66, "categories": [{"alias": "travelservices", "title": "Travel Services"}], "rating": 3.5, "coordinates": {"latitude": 25.77681, "longitude": -80.17238}, "transactions": [], "location": {"address1": "26 North Cruise Blvd", "address2": "", "address3": "", "city": "Miami", "zip_code": "33132", "country": "US", "state": "FL", "display_address": ["26 North Cruise Blvd", "Miami, FL 33132"]}, "phone": "", "display_phone": "", "distance": 6238.216766969753}, {"id": "ybrmIcLM_3p2Fonx3RqHMw", "alias": "carnival-sensation-miami-2", "name": "Carnival Sensation", "image_url": "https://s3-media4.fl.yelpcdn.com/bphoto/xOeeG5IFMpE1V95xEZN2Ug/o.jpg", "is_closed": false, "url": "https://www.yelp.com/biz/carnival-sensation-miami-2?adjust_creative=xaZ1Joo3-9aWJr5cVO0Jdg&utm_campaign=yelp_api_v3&utm_medium=api_v3_business_search&utm_source=xaZ1Joo3-9aWJr5cVO0Jdg", "review_count": 59, "categories": [{"alias": "boattours", "title": "Boat Tours"}], "rating": 2.5, "coordinates": {"latitude": 25.7780583054721, "longitude": -80.1731557480495}, "transactions": [], "location": {"address1": "1265 S America Way", "address2": "", "address3": null, "city": "Miami", "zip_code": "33132", "country": "US", "state": "FL", "display_address": ["1265 S America Way", "Miami, FL 33132"]}, "phone": "+13054064779", "display_phone": "(305) 406-4779", "distance": 5548.699036495776}, {"id": "8zcJ7aUcJZkVZxVyguunAQ", "alias": "carnival-glory-miami", "name": "Carnival Glory", "image_url": "https://s3-media2.fl.yelpcdn.com/bphoto/8sD_lxF1X2FM7xlnATenkw/o.jpg", "is_closed": false, "url": "https://www.yelp.com/biz/carnival-glory-miami?adjust_creative=xaZ1Joo3-9aWJr5cVO0Jdg&utm_campaign=yelp_api_v3&utm_medium=api_v3_business_search&utm_source=xaZ1Joo3-9aWJr5cVO0Jdg", "review_count": 68, "categories": [{"alias": "resorts", "title": "Resorts"}], "rating": 3.5, "coordinates": {"latitude": 25.77684, "longitude": -80.172406}, "transactions": [], "location": {"address1": "N Cruise Blvd", "address2": "", "address3": "", "city": "Miami", "zip_code": "33132", "country": "US", "state": "FL", "display_address": ["N Cruise Blvd", "Miami, FL 33132"]}, "phone": "", "display_phone": "", "distance": 5637.129132706355}, {"id": "aVGTrsarzodgLxBZ6l682g", "alias": "hot-shot-charters-llc-miami", "name": "Hot Shot Charters, LLC", "image_url": "https://s3-media3.fl.yelpcdn.com/bphoto/9lbOIr-qN3uoS78RCK13og/o.jpg", "is_closed": false, "url": "https://www.yelp.com/biz/hot-shot-charters-llc-miami?adjust_creative=xaZ1Joo3-9aWJr5cVO0Jdg&utm_campaign=yelp_api_v3&utm_medium=api_v3_business_search&utm_source=xaZ1Joo3-9aWJr5cVO0Jdg", "review_count": 9, "categories": [{"alias": "fishing", "title": "Fishing"}, {"alias": "boatcharters", "title": "Boat Charters"}], "rating": 4.5, "coordinates": {"latitude": 25.727342475671033, "longitude": -80.23249519223823}, "transactions": [], "location": {"address1": "3400 Pan American Dr", "address2": "", "address3": "Pier 9, Slip 7", "city": "Miami", "zip_code": "33133", "country": "US", "state": "FL", "display_address": ["3400 Pan American Dr", "Pier 9, Slip 7", "Miami, FL 33133"]}, "phone": "+13056083913", "display_phone": "(305) 608-3913", "distance": 6152.165410139444}, {"id": "gwf9crcg6TMv05eHpu4wkw", "alias": "royal-caribbean-empress-of-the-seas-miami-2", "name": "Royal Caribbean - Empress of the Seas", "image_url": "https://s3-media4.fl.yelpcdn.com/bphoto/WxeOwkFDFT7xxV4FRDHZYQ/o.jpg", "is_closed": false, "url": "https://www.yelp.com/biz/royal-caribbean-empress-of-the-seas-miami-2?adjust_creative=xaZ1Joo3-9aWJr5cVO0Jdg&utm_campaign=yelp_api_v3&utm_medium=api_v3_business_search&utm_source=xaZ1Joo3-9aWJr5cVO0Jdg", "review_count": 20, "categories": [{"alias": "tours", "title": "Tours"}, {"alias": "boating", "title": "Boating"}], "rating": 2.5, "coordinates": {"latitude": 25.779435073682, "longitude": -80.1768198609352}, "transactions": [], "location": {"address1": "1103 N Cruise Blvd", "address2": "", "address3": null, "city": "Miami", "zip_code": "33132", "country": "US", "state": "FL", "display_address": ["1103 N Cruise Blvd", "Miami, FL 33132"]}, "phone": "", "display_phone": "", "distance": 5170.895452317898}, {"id": "9sHfvzyHd-J6T74QY05meQ", "alias": "msc-seaside-miami-3", "name": "MSC Seaside", "image_url": "https://s3-media2.fl.yelpcdn.com/bphoto/5r04g9nvzBhcRQ7Wz60K-A/o.jpg", "is_closed": false, "url": "https://www.yelp.com/biz/msc-seaside-miami-3?adjust_creative=xaZ1Joo3-9aWJr5cVO0Jdg&utm_campaign=yelp_api_v3&utm_medium=api_v3_business_search&utm_source=xaZ1Joo3-9aWJr5cVO0Jdg", "review_count": 62, "categories": [{"alias": "transport", "title": "Transportation"}, {"alias": "boating", "title": "Boating"}], "rating": 2.0, "coordinates": {"latitude": 25.7789212769162, "longitude": -80.177072410595}, "transactions": [], "location": {"address1": "1103 N Cruise Blvd", "address2": "Cruise Terminal F", "address3": null, "city": "Miami", "zip_code": "33132", "country": "US", "state": "FL", "display_address": ["1103 N Cruise Blvd", "Cruise Terminal F", "Miami, FL 33132"]}, "phone": "", "display_phone": "", "distance": 5149.830155225449}, {"id": "qVqcpajNN_oZ6972V1b9lw", "alias": "carnival-liberty-cruise-ship-miami", "name": "Carnival Liberty Cruise Ship", "image_url": "https://s3-media3.fl.yelpcdn.com/bphoto/uIKzeNxXX2RWaArLc2KOww/o.jpg", "is_closed": false, "url": "https://www.yelp.com/biz/carnival-liberty-cruise-ship-miami?adjust_creative=xaZ1Joo3-9aWJr5cVO0Jdg&utm_campaign=yelp_api_v3&utm_medium=api_v3_business_search&utm_source=xaZ1Joo3-9aWJr5cVO0Jdg", "review_count": 22, "categories": [{"alias": "boatcharters", "title": "Boat Charters"}], "rating": 3.5, "coordinates": {"latitude": 25.7771109, "longitude": -80.1726921}, "transactions": [], "location": {"address1": "1265 N Cruise Blvd", "address2": "", "address3": "", "city": "Miami", "zip_code": "33132", "country": "US", "state": "FL", "display_address": ["1265 N Cruise Blvd", "Miami, FL 33132"]}, "phone": "", "display_phone": "", "distance": 5528.060746859628}, {"id": "DTj4j1tXdOVBcivBaw-seA", "alias": "south-beach-charters-miami", "name": "South Beach Charters", "image_url": "https://s3-media2.fl.yelpcdn.com/bphoto/sK-YGSmhE7Nn84qfqryewA/o.jpg", "is_closed": false, "url": "https://www.yelp.com/biz/south-beach-charters-miami?adjust_creative=xaZ1Joo3-9aWJr5cVO0Jdg&utm_campaign=yelp_api_v3&utm_medium=api_v3_business_search&utm_source=xaZ1Joo3-9aWJr5cVO0Jdg", "review_count": 26, "categories": [{"alias": "boatcharters", "title": "Boat Charters"}, {"alias": "boating", "title": "Boating"}], "rating": 2.0, "coordinates": {"latitude": 25.766371, "longitude": -80.1974753}, "transactions": [], "location": {"address1": "247 SW 8th St", "address2": "Ste 412", "address3": "", "city": "Miami", "zip_code": "33130", "country": "US", "state": "FL", "display_address": ["247 SW 8th St", "Ste 412", "Miami, FL 33130"]}, "phone": "+18007258543", "display_phone": "(800) 725-8543", "distance": 3576.3719776130156}, {"id": "Ijqrt1dFQuFQ-coKHj3HZQ", "alias": "galene-charters-miami-2", "name": "Galene Charters", "image_url": "https://s3-media2.fl.yelpcdn.com/bphoto/a76IK7oiqr8WbtoiWZq1iw/o.jpg", "is_closed": false, "url": "https://www.yelp.com/biz/galene-charters-miami-2?adjust_creative=xaZ1Joo3-9aWJr5cVO0Jdg&utm_campaign=yelp_api_v3&utm_medium=api_v3_business_search&utm_source=xaZ1Joo3-9aWJr5cVO0Jdg", "review_count": 9, "categories": [{"alias": "boatcharters", "title": "Boat Charters"}], "rating": 4.5, "coordinates": {"latitude": 25.791293053215636, "longitude": -80.1861552}, "transactions": [], "location": {"address1": "1717 N Bayshore Dr", "address2": "", "address3": "", "city": "Miami", "zip_code": "33132", "country": "US", "state": "FL", "display_address": ["1717 N Bayshore Dr", "Miami, FL 33132"]}, "phone": "+19175325252", "display_phone": "(917) 532-5252", "distance": 4334.969367483352}, {"id": "dRiXbRXmHimjSvu4v2mgfw", "alias": "fishing-headquarters-fort-lauderdale", "name": "Fishing Headquarters", "image_url": "https://s3-media2.fl.yelpcdn.com/bphoto/-QLuT0ogMOa6hk-fjxwYFg/o.jpg", "is_closed": false, "url": "https://www.yelp.com/biz/fishing-headquarters-fort-lauderdale?adjust_creative=xaZ1Joo3-9aWJr5cVO0Jdg&utm_campaign=yelp_api_v3&utm_medium=api_v3_business_search&utm_source=xaZ1Joo3-9aWJr5cVO0Jdg", "review_count": 202, "categories": [{"alias": "boatcharters", "title": "Boat Charters"}, {"alias": "fishing", "title": "Fishing"}, {"alias": "tours", "title": "Tours"}], "rating": 4.0, "coordinates": {"latitude": 26.11866, "longitude": -80.106}, "transactions": [], "location": {"address1": "301 Seabreeze Blvd", "address2": "", "address3": "", "city": "Fort Lauderdale", "zip_code": "33316", "country": "US", "state": "FL", "display_address": ["301 Seabreeze Blvd", "Fort Lauderdale, FL 33316"]}, "phone": "+17542147863", "display_phone": "(754) 214-7863", "distance": 39325.31775255158}, {"id": "6yQbmq6zwu2DiyPRdM8K3w", "alias": "norwegian-cruise-lines-miami-4", "name": "Norwegian Cruise Lines", "image_url": "https://s3-media3.fl.yelpcdn.com/bphoto/OgxUrb7u2okqqb-Y3UHmmw/o.jpg", "is_closed": false, "url": "https://www.yelp.com/biz/norwegian-cruise-lines-miami-4?adjust_creative=xaZ1Joo3-9aWJr5cVO0Jdg&utm_campaign=yelp_api_v3&utm_medium=api_v3_business_search&utm_source=xaZ1Joo3-9aWJr5cVO0Jdg", "review_count": 94, "categories": [{"alias": "travelservices", "title": "Travel Services"}], "rating": 3.0, "coordinates": {"latitude": 25.7848529815674, "longitude": -80.1891250610352}, "transactions": [], "location": {"address1": null, "address2": null, "address3": null, "city": "Miami", "zip_code": "33132", "country": "US", "state": "FL", "display_address": ["Miami, FL 33132"]}, "phone": "", "display_phone": "", "distance": 6203.905859940395}, {"id": "OZtbzSl66cZZWZawIqQHjg", "alias": "alamo-rent-a-car-miami-5", "name": "Alamo Rent A Car", "image_url": "https://s3-media1.fl.yelpcdn.com/bphoto/0QygoFS9PgveN7WMZRtPDQ/o.jpg", "is_closed": false, "url": "https://www.yelp.com/biz/alamo-rent-a-car-miami-5?adjust_creative=xaZ1Joo3-9aWJr5cVO0Jdg&utm_campaign=yelp_api_v3&utm_medium=api_v3_business_search&utm_source=xaZ1Joo3-9aWJr5cVO0Jdg", "review_count": 272, "categories": [{"alias": "carrental", "title": "Car Rental"}], "rating": 3.5, "coordinates": {"latitude": 25.7969309014171, "longitude": -80.2597966940812}, "transactions": [], "location": {"address1": "3900 NW 25th St", "address2": "Ste 400", "address3": null, "city": "Miami", "zip_code": "33142", "country": "US", "state": "FL", "display_address": ["3900 NW 25th St", "Ste 400", "Miami, FL 33142"]}, "phone": "+18448910547", "display_phone": "(844) 891-0547", "distance": 3531.736187890427}, {"id": "nUamlgLBKszw5VyH98I8Ww", "alias": "mansion-key-miami-beach", "name": "Mansion Key", "image_url": "https://s3-media2.fl.yelpcdn.com/bphoto/nCQyjtcc2645910ATyljkQ/o.jpg", "is_closed": false, "url": "https://www.yelp.com/biz/mansion-key-miami-beach?adjust_creative=xaZ1Joo3-9aWJr5cVO0Jdg&utm_campaign=yelp_api_v3&utm_medium=api_v3_business_search&utm_source=xaZ1Joo3-9aWJr5cVO0Jdg", "review_count": 15, "categories": [{"alias": "boatcharters", "title": "Boat Charters"}, {"alias": "jetskis", "title": "Jet Skis"}], "rating": 3.0, "coordinates": {"latitude": 25.8326965, "longitude": -80.1200893}, "transactions": [], "location": {"address1": "5401 Collins Ave", "address2": null, "address3": null, "city": "Miami Beach", "zip_code": "33139", "country": "US", "state": "FL", "display_address": ["5401 Collins Ave", "Miami Beach, FL 33139"]}, "phone": "+17866344388", "display_phone": "(786) 634-4388", "distance": 12187.827230008155}, {"id": "Stxw7W29vOiqTflZWbWWXQ", "alias": "miami-seaquarium-key-biscayne", "name": "Miami Seaquarium", "image_url": "https://s3-media4.fl.yelpcdn.com/bphoto/yc4dv6ZoHShpvbRMWw6aDg/o.jpg", "is_closed": false, "url": "https://www.yelp.com/biz/miami-seaquarium-key-biscayne?adjust_creative=xaZ1Joo3-9aWJr5cVO0Jdg&utm_campaign=yelp_api_v3&utm_medium=api_v3_business_search&utm_source=xaZ1Joo3-9aWJr5cVO0Jdg", "review_count": 767, "categories": [{"alias": "aquariums", "title": "Aquariums"}, {"alias": "tours", "title": "Tours"}], "rating": 2.0, "coordinates": {"latitude": 25.73425, "longitude": -80.16521}, "transactions": [], "location": {"address1": "4400 Rickenbacker Cswy", "address2": "", "address3": "", "city": "Key Biscayne", "zip_code": "33149", "country": "US", "state": "FL", "display_address": ["4400 Rickenbacker Cswy", "Key Biscayne, FL 33149"]}, "phone": "+13053615705", "display_phone": "(305) 361-5705", "distance": 8319.725217555851}, {"id": "tjlxvkk-uBS6CV8rvzOY5g", "alias": "juliet-sailing-and-diving-miami", "name": "Juliet Sailing and Diving", "image_url": "https://s3-media2.fl.yelpcdn.com/bphoto/211YQ6hSR4ttBYQ-IOHu4w/o.jpg", "is_closed": false, "url": "https://www.yelp.com/biz/juliet-sailing-and-diving-miami?adjust_creative=xaZ1Joo3-9aWJr5cVO0Jdg&utm_campaign=yelp_api_v3&utm_medium=api_v3_business_search&utm_source=xaZ1Joo3-9aWJr5cVO0Jdg", "review_count": 10, "categories": [{"alias": "scuba", "title": "Scuba Diving"}, {"alias": "tours", "title": "Tours"}], "rating": 5.0, "coordinates": {"latitude": 25.7738321, "longitude": -80.1899842}, "transactions": [], "location": {"address1": "25 SE 2nd Ave", "address2": "Ste 406", "address3": "", "city": "Miami", "zip_code": "33131", "country": "US", "state": "FL", "display_address": ["25 SE 2nd Ave", "Ste 406", "Miami, FL 33131"]}, "phone": "+18665585438", "display_phone": "(866) 558-5438", "distance": 3961.580111605214}, {"id": "G4iTsJGURb8s66NeUbn5-w", "alias": "royal-palm-south-beach-miami-a-tribute-portfolio-resort-miami-beach", "name": "Royal Palm South Beach Miami, a Tribute Portfolio Resort", "image_url": "https://s3-media4.fl.yelpcdn.com/bphoto/A1Qn7jL2b1yCjuBYSsInZw/o.jpg", "is_closed": false, "url": "https://www.yelp.com/biz/royal-palm-south-beach-miami-a-tribute-portfolio-resort-miami-beach?adjust_creative=xaZ1Joo3-9aWJr5cVO0Jdg&utm_campaign=yelp_api_v3&utm_medium=api_v3_business_search&utm_source=xaZ1Joo3-9aWJr5cVO0Jdg", "review_count": 502, "categories": [{"alias": "hotels", "title": "Hotels"}], "rating": 2.5, "coordinates": {"latitude": 25.7885094, "longitude": -80.1293106}, "transactions": [], "price": "$$", "location": {"address1": "1545 Collins Ave", "address2": "", "address3": "", "city": "Miami Beach", "zip_code": "33139", "country": "US", "state": "FL", "display_address": ["1545 Collins Ave", "Miami Beach, FL 33139"]}, "phone": "+13056045700", "display_phone": "(305) 604-5700", "distance": 9941.713344068306}, {"id": "AJayeEvL9OV0kBod6sOwmQ", "alias": "norwegian-cruise-line-downtown-miami", "name": "Norwegian Cruise Line", "image_url": "https://s3-media4.fl.yelpcdn.com/bphoto/8zmMYxdOzJK9G_qWN2_tZA/o.jpg", "is_closed": false, "url": "https://www.yelp.com/biz/norwegian-cruise-line-downtown-miami?adjust_creative=xaZ1Joo3-9aWJr5cVO0Jdg&utm_campaign=yelp_api_v3&utm_medium=api_v3_business_search&utm_source=xaZ1Joo3-9aWJr5cVO0Jdg", "review_count": 84, "categories": [{"alias": "tours", "title": "Tours"}], "rating": 3.0, "coordinates": {"latitude": 25.7741739126379, "longitude": -80.1666355133057}, "transactions": [], "location": {"address1": "24 Africa Way", "address2": "", "address3": "", "city": "Downtown Miami", "zip_code": "33132", "country": "US", "state": "FL", "display_address": ["24 Africa Way", "Downtown Miami, FL 33132"]}, "phone": "", "display_phone": "", "distance": 6248.8894010334225}, {"id": "ApjlMVg2qZBhokbDIgHgTw", "alias": "key-lime-bike-tours-key-west", "name": "Key Lime Bike Tours", "image_url": "https://s3-media3.fl.yelpcdn.com/bphoto/T-gzadNnzdKy2sN6saogGg/o.jpg", "is_closed": false, "url": "https://www.yelp.com/biz/key-lime-bike-tours-key-west?adjust_creative=xaZ1Joo3-9aWJr5cVO0Jdg&utm_campaign=yelp_api_v3&utm_medium=api_v3_business_search&utm_source=xaZ1Joo3-9aWJr5cVO0Jdg", "review_count": 106, "categories": [{"alias": "biketours", "title": "Bike tours"}], "rating": 5.0, "coordinates": {"latitude": 24.5596229, "longitude": -81.8048243}, "transactions": [], "location": {"address1": "122 Ann St", "address2": null, "address3": "", "city": "Key West", "zip_code": "33040", "country": "US", "state": "FL", "display_address": ["122 Ann St", "Key West, FL 33040"]}, "phone": "+13053407834", "display_phone": "(305) 340-7834", "distance": 208940.7024893821}, {"id": "nao14PM9SXsLQkkv9eGl_g", "alias": "bruschi-boat-rental-miami", "name": "Bruschi Boat Rental", "image_url": "https://s3-media4.fl.yelpcdn.com/bphoto/6X91MTt_1clVkDx4knuzuw/o.jpg", "is_closed": false, "url": "https://www.yelp.com/biz/bruschi-boat-rental-miami?adjust_creative=xaZ1Joo3-9aWJr5cVO0Jdg&utm_campaign=yelp_api_v3&utm_medium=api_v3_business_search&utm_source=xaZ1Joo3-9aWJr5cVO0Jdg", "review_count": 52, "categories": [{"alias": "boatcharters", "title": "Boat Charters"}, {"alias": "boating", "title": "Boating"}], "rating": 4.5, "coordinates": {"latitude": 25.77481, "longitude": -80.19773}, "transactions": [], "location": {"address1": "", "address2": "", "address3": null, "city": "Miami", "zip_code": "33141", "country": "US", "state": "FL", "display_address": ["Miami, FL 33141"]}, "phone": "+17867016078", "display_phone": "(786) 701-6078", "distance": 11239.926196750592}, {"id": "6sY904Sdi2Rs7HXO3NPcuA", "alias": "carnival-conquest-miami", "name": "Carnival Conquest", "image_url": "https://s3-media2.fl.yelpcdn.com/bphoto/TRkI1qla1a08x_uFVxnFOw/o.jpg", "is_closed": false, "url": "https://www.yelp.com/biz/carnival-conquest-miami?adjust_creative=xaZ1Joo3-9aWJr5cVO0Jdg&utm_campaign=yelp_api_v3&utm_medium=api_v3_business_search&utm_source=xaZ1Joo3-9aWJr5cVO0Jdg", "review_count": 66, "categories": [{"alias": "bedbreakfast", "title": "Bed & Breakfast"}], "rating": 3.5, "coordinates": {"latitude": 25.77876, "longitude": -80.274}, "transactions": [], "location": {"address1": "", "address2": "", "address3": "", "city": "Miami", "zip_code": "33126", "country": "US", "state": "FL", "display_address": ["Miami, FL 33126"]}, "phone": "+17139742121", "display_phone": "(713) 974-2121", "distance": 6811.502348152176}, {"id": "tMab4cfDws1q7DHZGL_IPg", "alias": "doubletree-by-hilton-grand-hotel-biscayne-bay-miami-2", "name": "DoubleTree by Hilton Grand Hotel Biscayne Bay", "image_url": "https://s3-media2.fl.yelpcdn.com/bphoto/J8XnwF6gu0UY7v96yJn4FQ/o.jpg", "is_closed": false, "url": "https://www.yelp.com/biz/doubletree-by-hilton-grand-hotel-biscayne-bay-miami-2?adjust_creative=xaZ1Joo3-9aWJr5cVO0Jdg&utm_campaign=yelp_api_v3&utm_medium=api_v3_business_search&utm_source=xaZ1Joo3-9aWJr5cVO0Jdg", "review_count": 237, "categories": [{"alias": "hotels", "title": "Hotels"}], "rating": 2.5, "coordinates": {"latitude": 25.791484203200714, "longitude": -80.1861552}, "transactions": [], "price": "$$", "location": {"address1": "1717 N Bayshore Dr", "address2": "", "address3": "", "city": "Miami", "zip_code": "33132", "country": "US", "state": "FL", "display_address": ["1717 N Bayshore Dr", "Miami, FL 33132"]}, "phone": "+13053720313", "display_phone": "(305) 372-0313", "distance": 4339.785453937837}, {"id": "sXa8VeeRm6VUclmI-v9wiQ", "alias": "comfort-suites-miami-airport-north-miami-springs", "name": "Comfort Suites Miami Airport North", "image_url": "https://s3-media1.fl.yelpcdn.com/bphoto/PNmpEsRpCkiwZjehmvYzLw/o.jpg", "is_closed": false, "url": "https://www.yelp.com/biz/comfort-suites-miami-airport-north-miami-springs?adjust_creative=xaZ1Joo3-9aWJr5cVO0Jdg&utm_campaign=yelp_api_v3&utm_medium=api_v3_business_search&utm_source=xaZ1Joo3-9aWJr5cVO0Jdg", "review_count": 94, "categories": [{"alias": "hotels", "title": "Hotels"}], "rating": 3.0, "coordinates": {"latitude": 25.808912, "longitude": -80.275057}, "transactions": [], "price": "$$", "location": {"address1": "657 Minola Drive", "address2": "", "address3": "", "city": "Miami Springs", "zip_code": "33166", "country": "US", "state": "FL", "display_address": ["657 Minola Drive", "Miami Springs, FL 33166"]}, "phone": "+13058888404", "display_phone": "(305) 888-8404", "distance": 5519.415859769356}, {"id": "dhMM2NBVbqVfdoaP-D-1_w", "alias": "ace-sailing-charters-miami", "name": "Ace Sailing Charters", "image_url": "https://s3-media1.fl.yelpcdn.com/bphoto/cXbWwd7bV0_TJclDLhKg-g/o.jpg", "is_closed": false, "url": "https://www.yelp.com/biz/ace-sailing-charters-miami?adjust_creative=xaZ1Joo3-9aWJr5cVO0Jdg&utm_campaign=yelp_api_v3&utm_medium=api_v3_business_search&utm_source=xaZ1Joo3-9aWJr5cVO0Jdg", "review_count": 6, "categories": [{"alias": "boatcharters", "title": "Boat Charters"}, {"alias": "boating", "title": "Boating"}, {"alias": "sailing", "title": "Sailing"}], "rating": 5.0, "coordinates": {"latitude": 25.778368095123252, "longitude": -80.18676492235225}, "transactions": [], "location": {"address1": "401 Biscayne Blvd", "address2": "", "address3": "Mia Marina at Bayside", "city": "Miami", "zip_code": "33132", "country": "US", "state": "FL", "display_address": ["401 Biscayne Blvd", "Mia Marina at Bayside", "Miami, FL 33132"]}, "phone": "+13057981626", "display_phone": "(305) 798-1626", "distance": 4189.390925816388}, {"id": "CaYIFBkxm9ctMwWvZkOrWw", "alias": "sagamore-hotel-miami-beach", "name": "Sagamore Hotel", "image_url": "https://s3-media2.fl.yelpcdn.com/bphoto/Gg6mDdWiu7ujZGQs-KylsA/o.jpg", "is_closed": false, "url": "https://www.yelp.com/biz/sagamore-hotel-miami-beach?adjust_creative=xaZ1Joo3-9aWJr5cVO0Jdg&utm_campaign=yelp_api_v3&utm_medium=api_v3_business_search&utm_source=xaZ1Joo3-9aWJr5cVO0Jdg", "review_count": 192, "categories": [{"alias": "hotels", "title": "Hotels"}], "rating": 3.5, "coordinates": {"latitude": 25.791649, "longitude": -80.1296353951759}, "transactions": [], "price": "$$$", "location": {"address1": "1671 Collins Ave", "address2": "", "address3": "", "city": "Miami Beach", "zip_code": "33139", "country": "US", "state": "FL", "display_address": ["1671 Collins Ave", "Miami Beach, FL 33139"]}, "phone": "+13055358088", "display_phone": "(305) 535-8088", "distance": 9934.96806294675}, {"id": "bFpD2nNJgTNyt1ceajYJMQ", "alias": "norwegian-cruise-lines-breakaway-miami", "name": "Norwegian Cruise Lines - Breakaway", "image_url": "https://s3-media4.fl.yelpcdn.com/bphoto/bvB1dRUVhYJbSh0jVLTXLA/o.jpg", "is_closed": false, "url": "https://www.yelp.com/biz/norwegian-cruise-lines-breakaway-miami?adjust_creative=xaZ1Joo3-9aWJr5cVO0Jdg&utm_campaign=yelp_api_v3&utm_medium=api_v3_business_search&utm_source=xaZ1Joo3-9aWJr5cVO0Jdg", "review_count": 13, "categories": [{"alias": "tours", "title": "Tours"}], "rating": 3.5, "coordinates": {"latitude": 25.7792762701011, "longitude": -80.1767608523369}, "transactions": [], "location": {"address1": "1103 N Cruise Blvd", "address2": "", "address3": null, "city": "Miami", "zip_code": "33132", "country": "US", "state": "FL", "display_address": ["1103 N Cruise Blvd", "Miami, FL 33132"]}, "phone": "", "display_phone": "", "distance": 5178.003211348354}, {"id": "1sh-x7H8ji4OUIXiexU_iA", "alias": "worldwide-cruises-miami-2", "name": "Worldwide Cruises", "image_url": "", "is_closed": false, "url": "https://www.yelp.com/biz/worldwide-cruises-miami-2?adjust_creative=xaZ1Joo3-9aWJr5cVO0Jdg&utm_campaign=yelp_api_v3&utm_medium=api_v3_business_search&utm_source=xaZ1Joo3-9aWJr5cVO0Jdg", "review_count": 3, "categories": [{"alias": "travelservices", "title": "Travel Services"}, {"alias": "tours", "title": "Tours"}], "rating": 2.5, "coordinates": {"latitude": 25.761815071106, "longitude": -80.3379173278809}, "transactions": [], "location": {"address1": "8784 SW 8th St", "address2": "", "address3": "", "city": "Miami", "zip_code": "33174", "country": "US", "state": "FL", "display_address": ["8784 SW 8th St", "Miami, FL 33174"]}, "phone": "+13052232323", "display_phone": "(305) 223-2323", "distance": 11211.166130418322}, {"id": "AtdVGa07M9gOryjxCLc-BQ", "alias": "sailing-adventures-miami-miami", "name": "Sailing Adventures Miami", "image_url": "https://s3-media1.fl.yelpcdn.com/bphoto/tLm_AhU1TU-Zb2nT8ePLzA/o.jpg", "is_closed": false, "url": "https://www.yelp.com/biz/sailing-adventures-miami-miami?adjust_creative=xaZ1Joo3-9aWJr5cVO0Jdg&utm_campaign=yelp_api_v3&utm_medium=api_v3_business_search&utm_source=xaZ1Joo3-9aWJr5cVO0Jdg", "review_count": 7, "categories": [{"alias": "boatcharters", "title": "Boat Charters"}], "rating": 4.5, "coordinates": {"latitude": 25.726446, "longitude": -80.235236}, "transactions": [], "location": {"address1": "3500 Pan American Dr", "address2": null, "address3": "", "city": "Miami", "zip_code": "33133", "country": "US", "state": "FL", "display_address": ["3500 Pan American Dr", "Miami, FL 33133"]}, "phone": "+12486136140", "display_phone": "(248) 613-6140", "distance": 6275.8414022095985}, {"id": "0o98ijPY2eYeQC61mhKcLg", "alias": "big-bus-tours-miami", "name": "Big Bus Tours", "image_url": "https://s3-media2.fl.yelpcdn.com/bphoto/VKyVs4NlKzUTFXJ4dPDVOA/o.jpg", "is_closed": false, "url": "https://www.yelp.com/biz/big-bus-tours-miami?adjust_creative=xaZ1Joo3-9aWJr5cVO0Jdg&utm_campaign=yelp_api_v3&utm_medium=api_v3_business_search&utm_source=xaZ1Joo3-9aWJr5cVO0Jdg", "review_count": 268, "categories": [{"alias": "bustours", "title": "Bus Tours"}], "rating": 2.5, "coordinates": {"latitude": 25.7791405, "longitude": -80.1867981}, "transactions": [], "location": {"address1": "401 Biscayne Blvd", "address2": null, "address3": "", "city": "Miami", "zip_code": "33131", "country": "US", "state": "FL", "display_address": ["401 Biscayne Blvd", "Miami, FL 33131"]}, "phone": "+18003368233", "display_phone": "(800) 336-8233", "distance": 4215.235838734901}, {"id": "IWHnHzqAnHqTlCeJxDPxFA", "alias": "star-clippers-miami-2", "name": "Star Clippers", "image_url": "https://s3-media3.fl.yelpcdn.com/bphoto/aoSKrLq2SCPhm_8JSiZDOQ/o.jpg", "is_closed": false, "url": "https://www.yelp.com/biz/star-clippers-miami-2?adjust_creative=xaZ1Joo3-9aWJr5cVO0Jdg&utm_campaign=yelp_api_v3&utm_medium=api_v3_business_search&utm_source=xaZ1Joo3-9aWJr5cVO0Jdg", "review_count": 4, "categories": [{"alias": "tours", "title": "Tours"}, {"alias": "travelservices", "title": "Travel Services"}], "rating": 2.5, "coordinates": {"latitude": 25.7770175933838, "longitude": -80.3709030151367}, "transactions": [], "location": {"address1": "760 NW 107th Ave", "address2": "Ste 100", "address3": "", "city": "Miami", "zip_code": "33172", "country": "US", "state": "FL", "display_address": ["760 NW 107th Ave", "Ste 100", "Miami, FL 33172"]}, "phone": "+18004420551", "display_phone": "(800) 442-0551", "distance": 14326.88747739544}, {"id": "LCl3RnLdkUWlTI6RXTDzkg", "alias": "royal-caribbean-anthem-of-the-seas-miami", "name": "Royal Caribbean - Anthem of the Seas", "image_url": "https://s3-media4.fl.yelpcdn.com/bphoto/MhtspkWttIEEo0Iwjc0iow/o.jpg", "is_closed": false, "url": "https://www.yelp.com/biz/royal-caribbean-anthem-of-the-seas-miami?adjust_creative=xaZ1Joo3-9aWJr5cVO0Jdg&utm_campaign=yelp_api_v3&utm_medium=api_v3_business_search&utm_source=xaZ1Joo3-9aWJr5cVO0Jdg", "review_count": 11, "categories": [{"alias": "hotelstravel", "title": "Hotels & Travel"}], "rating": 3.5, "coordinates": {"latitude": 25.775256775737, "longitude": -80.1782764371064}, "transactions": [], "location": {"address1": "1050 Caribbean Way", "address2": "", "address3": "Royal Caribbean International", "city": "Miami", "zip_code": "33132", "country": "US", "state": "FL", "display_address": ["1050 Caribbean Way", "Royal Caribbean International", "Miami, FL 33132"]}, "phone": "+18003989819", "display_phone": "(800) 398-9819", "distance": 5078.632302378735}, {"id": "oRPBQXl8GT6W3Xw3meXDUQ", "alias": "best-western-plus-miami-airport-north-hotel-and-suites-miami-3", "name": "Best Western Plus Miami Airport North Hotel & Suites", "image_url": "https://s3-media2.fl.yelpcdn.com/bphoto/mqxyQvr8iFLA1IpKr4Qs9A/o.jpg", "is_closed": false, "url": "https://www.yelp.com/biz/best-western-plus-miami-airport-north-hotel-and-suites-miami-3?adjust_creative=xaZ1Joo3-9aWJr5cVO0Jdg&utm_campaign=yelp_api_v3&utm_medium=api_v3_business_search&utm_source=xaZ1Joo3-9aWJr5cVO0Jdg", "review_count": 43, "categories": [{"alias": "hotels", "title": "Hotels"}], "rating": 4.0, "coordinates": {"latitude": 25.80871, "longitude": -80.28552}, "transactions": [], "price": "$$", "location": {"address1": "131 Fairway Dr", "address2": null, "address3": null, "city": "Miami", "zip_code": "33166", "country": "US", "state": "FL", "display_address": ["131 Fairway Dr", "Miami, FL 33166"]}, "phone": "+17865151880", "display_phone": "(786) 515-1880", "distance": 6434.249520019077}, {"id": "M6GLsG0-WlnBFKvWN2DNww", "alias": "silversea-cruises-miami", "name": "Silversea Cruises", "image_url": "https://s3-media4.fl.yelpcdn.com/bphoto/SCTnWm_y_gSP56iJ53pw5Q/o.jpg", "is_closed": false, "url": "https://www.yelp.com/biz/silversea-cruises-miami?adjust_creative=xaZ1Joo3-9aWJr5cVO0Jdg&utm_campaign=yelp_api_v3&utm_medium=api_v3_business_search&utm_source=xaZ1Joo3-9aWJr5cVO0Jdg", "review_count": 30, "categories": [{"alias": "tours", "title": "Tours"}], "rating": 1.5, "coordinates": {"latitude": 25.771128262722577, "longitude": -80.18956446141769}, "transactions": [], "location": {"address1": "333 SE 2nd Ave", "address2": "Ste 2600", "address3": null, "city": "Miami", "zip_code": "33131", "country": "US", "state": "FL", "display_address": ["333 SE 2nd Ave", "Ste 2600", "Miami, FL 33131"]}, "phone": "+19545224499", "display_phone": "(954) 522-4499", "distance": 4085.5848631783856}, {"id": "Mkfwu_r6gWUnD0vcSNzyZQ", "alias": "carnival-fantasy-miami", "name": "Carnival Fantasy", "image_url": "https://s3-media3.fl.yelpcdn.com/bphoto/XiS7bJkm-aDbaNDOsbFx2w/o.jpg", "is_closed": false, "url": "https://www.yelp.com/biz/carnival-fantasy-miami?adjust_creative=xaZ1Joo3-9aWJr5cVO0Jdg&utm_campaign=yelp_api_v3&utm_medium=api_v3_business_search&utm_source=xaZ1Joo3-9aWJr5cVO0Jdg", "review_count": 15, "categories": [{"alias": "tours", "title": "Tours"}], "rating": 3.5, "coordinates": {"latitude": 25.7753105163574, "longitude": -80.1697998046875}, "transactions": [], "location": {"address1": "2 Europe Way", "address2": "", "address3": "", "city": "Miami", "zip_code": "33132", "country": "US", "state": "FL", "display_address": ["2 Europe Way", "Miami, FL 33132"]}, "phone": "+18007647419", "display_phone": "(800) 764-7419", "distance": 5980.0227882781755}, {"id": "msST2WziUttElo2pFGVzwg", "alias": "voyager-of-the-seas-miami", "name": "Voyager of the Seas", "image_url": "https://s3-media2.fl.yelpcdn.com/bphoto/VtgiMmkOBxeXtRXXjue5-w/o.jpg", "is_closed": false, "url": "https://www.yelp.com/biz/voyager-of-the-seas-miami?adjust_creative=xaZ1Joo3-9aWJr5cVO0Jdg&utm_campaign=yelp_api_v3&utm_medium=api_v3_business_search&utm_source=xaZ1Joo3-9aWJr5cVO0Jdg", "review_count": 2, "categories": [{"alias": "tours", "title": "Tours"}, {"alias": "transport", "title": "Transportation"}], "rating": 4.0, "coordinates": {"latitude": 25.7752657, "longitude": -80.1777309}, "transactions": [], "location": {"address1": "1050 Carribean Way", "address2": "", "address3": "", "city": "Miami", "zip_code": "33132", "country": "US", "state": "FL", "display_address": ["1050 Carribean Way", "Miami, FL 33132"]}, "phone": "+18002566649", "display_phone": "(800) 256-6649", "distance": 5075.9290854936735}, {"id": "MSHapPsf2C0_7kSkPr5MHA", "alias": "boat-rental-miami-miami", "name": "Boat Rental Miami", "image_url": "https://s3-media3.fl.yelpcdn.com/bphoto/Ek0BDW7ZDJOAomhvpN3DBg/o.jpg", "is_closed": false, "url": "https://www.yelp.com/biz/boat-rental-miami-miami?adjust_creative=xaZ1Joo3-9aWJr5cVO0Jdg&utm_campaign=yelp_api_v3&utm_medium=api_v3_business_search&utm_source=xaZ1Joo3-9aWJr5cVO0Jdg", "review_count": 28, "categories": [{"alias": "boating", "title": "Boating"}], "rating": 4.0, "coordinates": {"latitude": 25.779866, "longitude": -80.185908}, "transactions": [], "location": {"address1": "401 Biscayne Blvd", "address2": "", "address3": "Pier 5 / Slip 28", "city": "Miami", "zip_code": "33132", "country": "US", "state": "FL", "display_address": ["401 Biscayne Blvd", "Pier 5 / Slip 28", "Miami, FL 33132"]}, "phone": "+17862952628", "display_phone": "(786) 295-2628", "distance": 4259.773611389721}]